name,lat,lon,category,traffic_score,rating,state
Klang Sports Centre (F.K.A TM Sports Complex),2.98344663,101.41187125,Recreation Centers,21.71,4.1,Selangor
TCE Tackles Sdn Bhd,4.46663138,118.59213727,Fishing & Hunting,74.43,4.7,Sabah
Xtreme Fitness NS,1.46952918,103.61511921,Gyms & Studios,30.43,4.3,Johor
BELIEVE FITNESS - Pinnacle Sri Petaling Mall,3.06772893,101.69184743,Gyms & Studios,30.71,4.7,Kuala Lumpur
OHM Fitness Centre,2.23983774,102.25644997,Gyms & Studios,37.71,4.2,Melaka
OXYGYM FITNESS,3.15520141,101.59095456,Gyms & Studios,34.29,5.0,Selangor
Summer Sport Centre,2.69959251,101.9191036,Recreation Centers,27.57,4.2,Negeri Sembilan
Dr.stretch 1 Utama,3.14791633,101.6133749,Gyms & Studios,40.0,5.0,Selangor
TCE Tackles Sdn Bhd,5.83100745,102.14916173,Fishing & Hunting,67.86,4.4,Kelantan
TCE Tackles Sdn Bhd,4.0297952,101.0144196,Fishing & Hunting,53.71,4.0,Perak
REP by REP GYM & FITNESS CENTRE,5.66345551,100.54440951,Gyms & Studios,51.57,4.7,Kedah
STUMPS! Indoor Cricket Centre,3.11396017,101.63565617,Recreation Centers,50.14,4.9,Selangor
My Gym Exercise Centre,1.84278766,102.95014822,Gyms & Studios,53.57,4.3,Johor
De'Fish Fishing Park,6.03397022,102.21015194,Fishing & Hunting,41.43,4.9,Kelantan
Golf & Country Club Kuala Kubu Bharu,3.57214584,101.64739272,Golf & Driving Ranges,70.0,3.9,Selangor
TCE Tackles Sdn Bhd,5.2698344,100.47444052,Fishing & Hunting,60.71,4.7,Other
Kolam Pancing Udang Galah Anuar Dowak (Joint Management),4.00568027,101.20824675,Fishing & Hunting,51.14,5.0,Perak
UiTM Shah Alam Sports Complex,3.06725024,101.49467743,Recreation Centers,40.57,4.3,Selangor
Satellite Sports PJ,3.08825641,101.63090428,Recreation Centers,33.57,4.2,Selangor
TCE Tackles Sdn Bhd,3.08806669,101.5433276,Fishing & Hunting,65.14,4.1,Selangor
Karambunai Fishing Jetty,6.09807465,116.1366079,Fishing & Hunting,31.43,3.8,Sabah
Elevate Sports Performance,3.0891718,101.62072927,Recreation Centers,43.14,5.0,Selangor
Brother One Gym & Fitness Sentul,3.18146248,101.69514643,Gyms & Studios,33.86,5.0,Kuala Lumpur
Berapit Sport Centre,5.37532814,100.46686489,Other Outdoor & Lawn Sports,60.86,4.3,Other
Anytime Fitness Tropika Bukit Jalil - 24 Hour Gym,3.05288739,101.67581852,Gyms & Studios,35.86,4.1,Kuala Lumpur
7 Stone Badminton Court,1.46790792,110.32226456,Recreation Centers,52.0,4.4,Sarawak
Liv Studio - Yoga & Pilates,3.13743744,101.6186633,Gyms & Studios,38.71,4.8,Selangor
Batuu Climbing,3.1304802,101.62436083,Gyms & Studios,58.0,4.7,Selangor
Anne Nikko Fitness Gym,3.1389825,101.52355175,Gyms & Studios,60.86,4.9,Selangor
KFitness Gym - #1 Biggest Gym in PJ,3.09518143,101.6290206,Gyms & Studios,57.43,4.9,Selangor
KlimbZone,1.49359267,110.34733667,Gyms & Studios,48.86,4.9,Sarawak
TT Sports Centre @ PJ,3.08536926,101.62403595,Recreation Centers,29.43,4.6,Selangor
Kolam mancing air masin telok belanga,2.34992354,102.04163874,Fishing & Hunting,44.57,3.7,Other
YOLO Fitness,5.92951731,116.08301382,Gyms & Studios,48.14,4.7,Sabah
Kolam Sri Tanjung,3.00277421,101.37433741,Fishing & Hunting,25.71,4.4,Selangor
Younique Sports Sungai Besi,3.11167352,101.70479654,Team Sports & Fields,34.71,3.6,Kuala Lumpur
Union Strength Hartamas,3.16398389,101.65488925,Gyms & Studios,41.57,4.9,Kuala Lumpur
Believe Fitness You City 3,3.07277697,101.76096228,Gyms & Studios,38.14,4.7,Selangor
Al Ryan Sauna Bangi,2.96219568,101.75123364,Saunas & Spas,38.71,5.0,Selangor
Kolam Pancing Damai Semenyih,2.97810117,101.85874127,Fishing & Hunting,49.29,5.0,Selangor
TCE Tackles Sdn Bhd,3.16420664,101.57109682,Fishing & Hunting,48.43,3.8,Selangor
"W Traditional Thai Therapeutic Wellness - Heritage Row, KL / 吉隆坡老街",3.15788929,101.69762224,Saunas & Spas,47.57,4.8,Kuala Lumpur
"Endfield Football Field, The Club",3.1502305,101.60065719,Team Sports & Fields,29.43,4.4,Selangor
Megah Rise Badminton Courts,3.11430849,101.6090254,Other Outdoor & Lawn Sports,39.71,2.6,Selangor
BBC Best Bola Challenger Futsal Center_Setapak,3.19484476,101.71421672,Ball Sports,30.43,4.3,Kuala Lumpur
The Palms Batu Pahat,1.87059773,102.95336071,Other Outdoor & Lawn Sports,30.57,4.2,Johor
Sunday Pilates,3.13601086,101.59251055,Gyms & Studios,44.86,4.6,Selangor
SnowLim Wonderland,2.70843421,101.91788057,Snow & Winter Sports,61.86,4.6,Negeri Sembilan
San Onsen KSL,2.95756025,101.4644673,Saunas & Spas,63.43,4.9,Selangor
Bora Bora Headspa,3.14765252,101.75309477,Saunas & Spas,51.17,4.9,Selangor
TCE Tackles Sdn Bhd,5.43615851,100.3950944,Fishing & Hunting,47.86,4.1,Other
TCE Tackles Sdn Bhd,3.19126824,101.70560082,Fishing & Hunting,69.71,3.8,Kuala Lumpur
Fa's Fishing Pond (Kolam Pancing Udang Galah),4.21673691,100.66478044,Fishing & Hunting,38.33,4.8,Perak
Euphoria,3.14988084,101.64970194,Gyms & Studios,33.0,4.5,Kuala Lumpur
TCE Tackles Sdn Bhd,2.27660844,102.38964135,Fishing & Hunting,57.0,4.3,Melaka
NZX Sports Arena,3.11501893,101.58760344,Team Sports & Fields,55.57,3.6,Selangor
P&L Kolam Pancing,1.46922594,103.86536231,Fishing & Hunting,41.29,3.6,Johor
U Fitness Gym Permas,1.49551034,103.81288665,Gyms & Studios,46.86,4.9,Johor
TCE Tackles Sdn Bhd,2.7035721,101.91575054,Fishing & Hunting,68.43,3.9,Negeri Sembilan
Bangsawan Fitness,3.23973855,101.43178532,Gyms & Studios,35.43,4.8,Selangor
KOLAM PANCING 3 ABDUL (UDANG GALAH),3.18719881,101.71607634,Fishing & Hunting,49.29,3.4,Kuala Lumpur
Pekan Nanas Sports Centre,1.50448329,103.51531759,Recreation Centers,61.71,4.1,Johor
White Fairy Futsal & Badminton Court,3.05970352,101.63433387,Recreation Centers,50.43,4.0,Selangor
The Parenthood @ Melawati Mall,3.21032881,101.7460373,Recreation Centers,47.43,4.0,Kuala Lumpur
TCE Tackles Sdn Bhd,5.02800675,118.28977727,Fishing & Hunting,60.57,4.6,Sabah
Rancak Fishing Resort,4.91619927,100.71238798,Fishing & Hunting,35.71,5.0,Perak
Permas City Walks,1.51168518,103.81531647,Other Outdoor & Lawn Sports,31.0,4.3,Johor
Footballhub & Picklehub @ SkyArena,3.39023137,101.77556758,Team Sports & Fields,24.57,4.0,Pahang
"Lean Muscle Gym (Fitness, Protein, Supplements & Personal Trainer)",2.8210062,101.8155594,Gyms & Studios,54.33,4.9,Negeri Sembilan
Kolam Pancing Top One,1.41288431,103.41266854,Fishing & Hunting,27.14,4.1,Johor
Forum Pudu,3.13482769,101.71379743,Recreation Centers,23.43,4.2,Kuala Lumpur
ALIMAMA ONLINE STORE,2.90711397,101.4595601,Fishing & Hunting,57.0,4.9,Selangor
Lucky Recreational Center,4.57686084,101.07880677,Fishing & Hunting,42.14,4.9,Perak
Ah huat fishing cafe,1.57780347,103.72335238,Fishing & Hunting,60.71,4.7,Johor
"24-Hour Gym: Anytime Fitness Bandar Kinrara, Puchong",3.05035934,101.64297945,Gyms & Studios,31.29,4.7,Selangor
Anytime Fitness Bukit Jelutong,3.10174124,101.53315032,Gyms & Studios,37.57,4.5,Selangor
"24-Hour Gym: Anytime Fitness Taman Desa, Faber Towers",3.10259223,101.6822269,Gyms & Studios,37.71,4.5,Kuala Lumpur
"Air Terjun Ulu Licin, ( Beruas, Perak )",4.53664287,100.77510045,Recreation Centers,28.14,4.4,Perak
Putrajaya Challenge Park - Skatepark,2.88919158,101.66288651,Skating & Rinks,62.71,4.6,Putrajaya
Bukit Unggul Country Club,2.88635132,101.7468048,Golf & Driving Ranges,59.86,4.0,Selangor
CT Advance Sports (Max Court),5.63895732,100.50205094,Other Outdoor & Lawn Sports,49.0,4.3,Kedah
Futsal n Badminton Court Bandar Country Homes,3.3365194,101.52004485,Recreation Centers,51.43,3.9,Selangor
SnoWalk by i-City,3.0651686,101.48223161,Snow & Winter Sports,42.29,4.1,Selangor
V Functional Fitness,2.02012061,103.30729137,Gyms & Studios,44.0,4.9,Johor
Ombak Damai,5.2826443,100.21407953,Recreation Centers,44.33,4.1,Other
Too Bee Sport Centre,1.49929985,103.85950352,Team Sports & Fields,41.43,4.1,Johor
Fitness First Gym - Paradigm Mall,3.10449721,101.59298897,Gyms & Studios,43.43,4.1,Selangor
Danau Golf UKM (DGUKM),2.93539582,101.7848322,Golf & Driving Ranges,57.0,4.0,Selangor
Camp5 Climbing Gym,3.14984466,101.61367564,Gyms & Studios,52.14,4.6,Selangor
Fury Fitness,5.40647068,100.5463998,Gyms & Studios,44.0,4.5,Kedah
Perniagaan Ewatt,6.14116919,102.23365015,Fishing & Hunting,56.0,4.3,Kelantan
Pulau Chekas Riverpools,3.94262298,102.01928694,Recreation Centers,41.29,4.5,Pahang
Muscle House Fitness Center - Muar,2.04958165,102.56889932,Gyms & Studios,24.57,4.9,Johor
force fitness kajang,2.96751584,101.78715466,Gyms & Studios,25.43,4.3,Selangor
Cobra Gym Express Taman Sentosa 24 Hour Fitness,3.00865574,101.46959712,Gyms & Studios,40.57,4.5,Selangor
TCE Tackles Sdn Bhd,5.96855345,116.0691437,Fishing & Hunting,45.43,4.4,Sabah
Kiulu White Water Rafting Centre,6.06500118,116.27729273,Water & Aquatic Sports,49.86,4.5,Sabah
TCE Tackles Sdn Bhd,4.19737981,100.66741268,Fishing & Hunting,62.71,4.1,Perak
Transform Fitness Centre,1.56287144,103.79774321,Gyms & Studios,41.71,4.6,Johor
Avenger Sports Arena,3.12490644,101.74222779,Recreation Centers,46.71,3.9,Selangor
Dory Swim (Cheras Branch),3.08876854,101.72439965,Water & Aquatic Sports,55.86,4.7,Kuala Lumpur
TCE Tackles Sdn Bhd,5.74141259,102.47263013,Fishing & Hunting,54.86,4.1,Terengganu
Bukit Jalil Golf Club Driving Range,3.05195772,101.67825824,Golf & Driving Ranges,53.57,4.0,Kuala Lumpur
Maran Hill Golf and Resort,3.57797862,102.78093128,Golf & Driving Ranges,19.43,3.9,Pahang
Golfzon Johor,1.39371865,103.63253579,Golf & Driving Ranges,38.29,4.9,Johor
Taman Cabaran (Wall Climbing) Challenger Park Rock Climbing Gym,2.88862156,101.66570067,Recreation Centers,43.67,4.4,Putrajaya
Celebrity Fitness Gym - Wangsa Walk,3.19931796,101.74001974,Gyms & Studios,46.29,3.6,Kuala Lumpur
Xiang Recreation 湘休闲中心,1.99850553,102.58819967,Recreation Centers,44.17,4.1,Johor
Anytime Fitness Sentul Point,3.20193345,101.68677913,Gyms & Studios,39.71,4.4,Kuala Lumpur
LifenFitness EkoCheras,3.09517854,101.73595274,Gyms & Studios,30.29,4.6,Kuala Lumpur
Anytime Fitness @Menara UOA Bangsar,3.12810473,101.67609861,Gyms & Studios,34.86,4.2,Kuala Lumpur
Permaipura Golf & Country Club,5.73018233,100.52564248,Golf & Driving Ranges,61.14,4.4,Kedah
TCE Tackles Sdn Bhd,3.31783096,101.57544958,Fishing & Hunting,72.29,4.4,Selangor
MUAY THAI BULOH GADING,3.22495795,101.57075389,Gyms & Studios,55.29,4.6,Selangor
TCE Tackles Sdn Bhd,3.67409854,100.98004121,Fishing & Hunting,60.0,4.0,Selangor
Workout Holic Gym,3.09724655,101.55321994,Gyms & Studios,52.43,4.3,Selangor
Penang Golf Resort,5.52380812,100.44348217,Golf & Driving Ranges,41.29,3.9,Penang
Winner Court,1.51188845,110.32860071,Recreation Centers,47.14,3.9,Sarawak
GT Sports & Recreation Club,4.62362252,101.12549763,Recreation Centers,39.43,4.6,Perak
Aspire @ Access World,3.11719993,101.62612224,Gyms & Studios,49.43,5.0,Selangor
Savage Gears PuchongGym&Studio,3.02248121,101.61360048,Gyms & Studios,35.29,4.4,Selangor
Sport Line Tackle Shop Section 15 Shah Alam,3.06403258,101.53551932,Fishing & Hunting,49.29,4.8,Selangor
U Five Sports center,1.47865854,103.87548755,Recreation Centers,44.29,4.0,Johor
TCE Tackles Sdn Bhd,2.32235441,111.83605512,Fishing & Hunting,71.71,4.1,Sarawak
Silver State Table Tennis Centre,4.63833082,101.08840327,Gyms & Studios,66.29,4.4,Perak
Dewan Serbaguna Taman Setiawangsa,3.18167783,101.74226574,Recreation Centers,49.86,4.3,Kuala Lumpur
Curves Wangsa Maju,3.19801476,101.74298941,Gyms & Studios,57.0,4.9,Kuala Lumpur
Kelantan Golf Club,6.15408752,102.30738473,Golf & Driving Ranges,73.57,4.1,Kelantan
TCE Tackles Sdn Bhd,3.20320496,101.48322131,Fishing & Hunting,63.86,4.3,Selangor
WELLFITNESS & GYMNASIUM PORT DICKSON,2.54755269,101.80013056,Gyms & Studios,44.57,4.1,Negeri Sembilan
Younique Sports Semenyih,2.93430219,101.83004152,Recreation Centers,33.86,4.1,Selangor
Gua Damai Extreme Park,3.24784156,101.68537757,Gyms & Studios,32.71,4.5,Selangor
Northern Iron Gym & Fitness,5.17515161,100.47408219,Gyms & Studios,47.33,4.4,Penang
Stadium Futsal POLO,3.83144616,103.30359137,Ball Sports,26.57,4.3,Pahang
Amazonian Fitness,5.33310037,100.2914879,Gyms & Studios,36.14,4.9,Other
TCE Tackles Sdn Bhd,4.82598887,100.71831487,Fishing & Hunting,61.71,3.8,Perak
Hwa Tat Tackle Sdn. Bhd.,5.33044527,100.47607845,Fishing & Hunting,62.67,4.4,Other
Celebrity Fitness Gym - Mid Valley,3.11869252,101.67545159,Gyms & Studios,41.29,3.9,Kuala Lumpur
Impian Sports,1.54677193,103.68965341,Recreation Centers,44.43,4.2,Other
Uptown Sports,2.97463776,101.74873489,Recreation Centers,31.0,4.3,Selangor
TCE Tackles Sdn Bhd,5.85625032,118.07179297,Fishing & Hunting,69.0,4.4,Sabah
TCE Tackles Sdn Bhd,1.4561844,110.4466565,Fishing & Hunting,61.86,4.4,Sarawak
Kelab Golf Perkhidmatan Awam,3.13117971,101.6413503,Golf & Driving Ranges,66.71,4.1,Kuala Lumpur
Fun X World,3.05995413,101.59097924,Recreation Centers,54.43,4.7,Selangor
Cobra Gym Express Seremban 2 24 Hour Fitness,2.69433451,101.90040477,Gyms & Studios,23.0,4.0,Negeri Sembilan
PJS Sports Centre (by xivo.sports),3.07314773,101.61668762,Recreation Centers,47.14,4.1,Selangor
RKS SPORTS CENTRE,3.10992537,101.58396112,Recreation Centers,62.14,4.0,Selangor
(KPLJ) Lancong Jaya Fishing Pond,3.00438884,101.54962281,Fishing & Hunting,31.0,4.7,Selangor
Project Rock Climbing Gym,5.23294575,100.43732156,Gyms & Studios,35.29,4.7,Other
SPA Manja,1.48769488,103.75530373,Saunas & Spas,47.43,4.1,Johor
Celebrity Fitness Gym - Palm Mall,2.72013071,101.92076365,Gyms & Studios,40.57,3.8,Negeri Sembilan
7 Fitness Sports Centre,2.70626154,101.92423484,Gyms & Studios,60.43,4.0,Negeri Sembilan
Badminton Hall Sri Amar (Sri Amar JL Sports Centre),1.51730825,103.75984335,Other Outdoor & Lawn Sports,42.43,4.3,Johor
TCE Tackles Sdn Bhd,2.05741363,102.55786542,Fishing & Hunting,67.0,4.0,Johor
SKT Golf Studio,3.09302628,101.59999836,Golf & Driving Ranges,26.17,4.3,Selangor
Everyday Sports,1.53409579,103.68739783,Ball Sports,35.71,4.3,Johor
W Traditional Thai Therapeutic Wellness - Mont Kiara / 滿家樂,3.17233363,101.65219549,Saunas & Spas,68.43,4.8,Kuala Lumpur
TCE Tackles Sdn Bhd,4.02413484,101.01607511,Fishing & Hunting,63.29,4.2,Perak
TCE Tackles Sdn Bhd,3.07451235,101.64692079,Fishing & Hunting,57.43,4.0,Selangor
Dewan Badminton MMA,2.80048077,101.48264256,Other Outdoor & Lawn Sports,36.17,4.3,Selangor
TCE Tackles Sdn Bhd,1.66861313,103.58525881,Fishing & Hunting,56.71,3.7,Johor
RedLine Gym Johor Bahru,1.53211548,103.73177657,Gyms & Studios,39.14,4.7,Johor
Sport Planet Futsal Cheng,2.26940991,102.22604882,Recreation Centers,35.86,4.1,Melaka
Selangor Shooting Association,3.13299019,101.56441374,Shooting & Gun Ranges,60.67,4.6,Selangor
Third Space Pilates - Mont Kiara,3.16736547,101.6442048,Gyms & Studios,34.71,4.9,Kuala Lumpur
1 One Fitness Setia Alam,3.08745388,101.47479855,Gyms & Studios,35.29,4.9,Selangor
Royal Seri Menanti Golf & Country Club,2.70844439,102.15465561,Golf & Driving Ranges,50.71,4.0,Negeri Sembilan
TCE Tackles Sdn Bhd,5.12144566,100.48391257,Fishing & Hunting,58.29,4.0,Perak
TCE Tackles Sdn Bhd,5.9942871,116.13240893,Fishing & Hunting,69.29,4.4,Sabah
TOP GYM FITNESS (TMN DESA CEMERLANG) 小巨人健身室,1.55411071,103.81378414,Gyms & Studios,63.14,4.6,Johor
Seven Star Gym Pulau Tikus,5.42763456,100.31277171,Gyms & Studios,42.14,4.9,Other
24-Hour Gym: Anytime Fitness Tanjung Tokong George Town Penang,5.44978083,100.30239666,Gyms & Studios,38.86,4.8,Penang
Jabfit & TCM Rehab,5.43079815,100.30861378,Gyms & Studios,34.86,5.0,Penang
EAST SOUND Fitness Center Club,5.39031963,100.28092771,Gyms & Studios,52.14,4.8,Other
Anytime Fitness Platinum Arena,3.08209245,101.66060952,Gyms & Studios,38.14,4.4,Kuala Lumpur
Train by Blackbox,3.06924631,101.59280672,Gyms & Studios,31.17,5.0,Selangor
Kayxi Beauty Spa and Makeup,6.10378413,102.2085194,Saunas & Spas,54.14,5.0,Kelantan
Celebrity Fitness Gym - Queensbay Mall,5.33271881,100.30411635,Gyms & Studios,43.86,3.9,Other
Hikari Martial Arts Gym | Ampang Branch,3.16124362,101.72570512,Martial Arts & Dojos,32.57,4.9,Kuala Lumpur
FEBA Fight Club,3.16411951,101.57121547,Martial Arts & Dojos,46.14,5.0,Selangor
Merican Muay Thai Gym - Damansara Jaya,3.12542678,101.60973118,Martial Arts & Dojos,47.0,4.4,Selangor
MMA Sports Hub,1.50969663,110.33342166,Martial Arts & Dojos,35.14,5.0,Sarawak
Novothai Spa,4.57764594,101.0801454,Saunas & Spas,56.43,4.7,Perak
Toy World Amusement Baby Shark Adventure Ville,1.51633113,103.68224855,Recreation Centers,37.29,3.7,Johor
Kolam Pancing Santai Sg. Tekali (Rohu & Patin),3.11396752,101.8501179,Fishing & Hunting,43.43,4.9,Selangor
Kolam Pancing NAZ Fishing Valley,3.18323579,101.30680089,Fishing & Hunting,34.67,3.6,Selangor
Melwood Arena Sungai Buloh,3.21909467,101.59972561,Team Sports & Fields,29.71,4.5,Selangor
Power Gym Kuching City Mall,1.49523329,110.30085121,Gyms & Studios,51.57,4.5,Sarawak
V Spa Bintulu,3.18307631,113.03913274,Saunas & Spas,63.14,4.9,Sarawak
Sergio Aguero Arena,3.85885096,103.32385056,Ball Sports,28.14,4.9,Pahang
EV Arena Elmina,3.1811333,101.50849086,Team Sports & Fields,17.43,4.4,Selangor
Tunas Badminton Sports Centre,2.70777619,101.9175103,Team Sports & Fields,20.0,4.9,Negeri Sembilan
Pronet Sport Centre,2.69944242,101.91873795,Recreation Centers,27.57,4.6,Negeri Sembilan
Yosin Badminton Court 2 (Previously known as Elite Sports),3.14460934,101.52917617,Other Outdoor & Lawn Sports,24.86,3.5,Selangor
Mini Mak Chili Stadium,4.2460142,103.39841657,Recreation Centers,44.83,4.8,Terengganu
Footballhub @ Eco Grandeur,3.22823227,101.45502754,Team Sports & Fields,18.71,4.4,Selangor
Esplanade Bowl Kg. Koh,4.20650014,100.69851744,Recreation Centers,35.29,4.2,Perak
Elite Futsal and Badminton,3.68642265,101.51675293,Other Outdoor & Lawn Sports,58.14,3.9,Perak
FR Badminton Sports,3.67215063,101.52130955,Team Sports & Fields,26.0,4.7,Selangor
Dewan Badminton Haji Amir,5.79559671,102.55616171,Recreation Centers,37.57,4.8,Terengganu
Tupah Sports Centre,5.71504519,100.4354767,Other Outdoor & Lawn Sports,33.86,5.0,Kedah
Batu Berendam Badminton Hall,2.25124564,102.24573868,Recreation Centers,27.86,4.7,Melaka
UIA Football Turf,3.24901761,101.74108795,Team Sports & Fields,33.29,3.8,Kuala Lumpur
BB Sports Park,3.22005044,101.73894162,Recreation Centers,43.29,4.4,Kuala Lumpur
Level Up Fitness Xpress Marina Square (24 Hour Gym),4.39180658,113.97850782,Gyms & Studios,53.67,4.2,Sarawak
Kapten Gym,2.70381847,101.95699912,Gyms & Studios,51.71,4.2,Negeri Sembilan
AS Futsal Tok Jembal,5.40199262,103.08921791,Ball Sports,27.14,4.8,Terengganu
Miya Futsal Sport Centre,5.29073332,103.01991393,Ball Sports,51.29,4.9,Terengganu
Futsal Arena Alam,1.5099988,103.86467759,Ball Sports,45.0,4.8,Johor
BFT Damansara Heights,3.15029547,101.65033381,Gyms & Studios,37.33,5.0,Kuala Lumpur
雪兰莪兿峰龍獅體育會 Persatuan Sukan Ngai Fong Ampang Selangor,3.11517998,101.7591921,Recreation Centers,33.0,4.5,Selangor
Sakura Spa,3.13536296,101.70037974,Recreation Centers,58.86,4.4,Kuala Lumpur
Wedge Range PJ,3.0879511,101.62222394,Golf & Driving Ranges,49.71,4.8,Selangor
VSE GOLF RANGE SIMULATOR,2.96503113,101.71751461,Golf & Driving Ranges,57.14,5.0,Selangor
Underpar Driving Range,3.80942515,103.36250433,Golf & Driving Ranges,32.43,5.0,Pahang
Blue Ice Snow Park @ Pavilion Bukit Jalil,3.05257261,101.66749439,Skating & Rinks,58.0,4.1,Kuala Lumpur
Kolam Pancing MV Air Masin,3.10187115,101.8106925,Fishing & Hunting,54.86,3.3,Selangor
Genki Wellness Centre & Japanese Spa,5.30718758,100.47876667,Saunas & Spas,58.57,4.8,Other
Crystal Leaf Beauty SPA,1.48361484,103.75455843,Saunas & Spas,34.71,4.9,Johor
AP GYM & FITNESS,1.48085843,103.88978423,Gyms & Studios,37.43,4.2,Johor
Kong Gym and Body Building Centre,2.66928372,101.9815917,Gyms & Studios,29.57,4.8,Negeri Sembilan
Pro-Fit Fitness Studio (1-on-1 Personal Training Private Studio),3.11196138,101.73970348,Gyms & Studios,36.33,4.8,Kuala Lumpur
TOP GRACE ARENA SPORT,5.86306237,118.03535065,Other Outdoor & Lawn Sports,49.14,4.7,Sabah
AFC Athlete Fitness Centre,1.45924569,103.58054516,Gyms & Studios,50.29,4.4,Johor
Cobra Gym Express Seksyen 32 Shah Alam 24 Hour Fitness,3.01957535,101.5337834,Gyms & Studios,46.57,4.4,Selangor
TCE Tackles Sdn Bhd,5.03619364,118.33859169,Fishing & Hunting,72.29,4.5,Sabah
Max Power Gym & Fitness Studio,5.68024997,100.49103854,Gyms & Studios,43.17,4.4,Kedah
Kolam Memancing PokNik,3.78367632,103.31753395,Fishing & Hunting,35.29,3.9,Pahang
Master Badminton Club (MBC) Klebang,4.68492133,101.11718577,Other Outdoor & Lawn Sports,53.43,4.4,Perak
Transform Gym Battle Zone,1.55267062,103.7819502,Gyms & Studios,48.14,4.2,Johor
Anytime Fitness Eco Sky,3.21920739,101.66876749,Gyms & Studios,30.0,4.7,Selangor
Kuala Lumpur Sports City,3.05350242,101.68990755,Recreation Centers,13.57,4.4,Kuala Lumpur
Celebrity Fitness - MyTOWN Shopping Centre,3.13561624,101.71973357,Gyms & Studios,40.71,3.9,Kuala Lumpur
Myraz Gym & Studio,2.94730424,101.61482441,Gyms & Studios,59.33,4.4,Selangor
Subang Racquet & Golf Center,3.08099847,101.57503359,Recreation Centers,40.14,3.4,Selangor
Believe Fitness BMC Mall,3.05493936,101.78410778,Gyms & Studios,46.57,4.3,Selangor
Kolam Pancing Udang Galah Mileseven Ijok,3.3135959,101.38194235,Fishing & Hunting,20.57,4.1,Selangor
TCE Tackles Sdn Bhd,6.11656385,102.24406885,Fishing & Hunting,60.14,4.1,Kelantan
TCE Tackles Sdn Bhd,4.89348841,100.72195721,Fishing & Hunting,67.57,4.2,Perak
TCE Tackles Sdn Bhd,5.44103447,101.13003461,Fishing & Hunting,64.43,4.0,Perak
TCE Tackles Sdn Bhd,3.13033484,101.72872158,Fishing & Hunting,74.43,4.2,Kuala Lumpur
Yiko Badminton Sarikei,2.12446858,111.54673934,Other Outdoor & Lawn Sports,27.71,4.8,Sarawak
TCE Tackles Sdn Bhd,5.59771474,102.1905713,Fishing & Hunting,67.71,4.2,Kelantan
Anytime Fitness Setia Tropika,1.54865525,103.71465169,Gyms & Studios,29.14,4.6,Johor
Cowboy Fitness Taman Pelangi Johor Bahru,1.47866357,103.77329748,Gyms & Studios,54.14,4.8,Johor
KAS Kepong Arena Sports,3.20373888,101.64837681,Other Outdoor & Lawn Sports,51.29,4.0,Kuala Lumpur
TCE Tackles Sdn Bhd,6.06347256,116.17975367,Fishing & Hunting,61.14,4.8,Sabah
Mighty Fitness Gym,3.8253648,103.33352823,Gyms & Studios,38.14,3.8,Pahang
CLUBALOHA (Plaza Damas),3.16452393,101.65417124,Gyms & Studios,42.86,4.8,Kuala Lumpur
"Darulaman Golf & Country Club, DGCC",6.24862085,100.43989826,Golf & Driving Ranges,61.57,4.0,Kedah
Level Up Fitness MJC Papillon (Premium 24-Hour Gym),1.51460761,110.30168612,Gyms & Studios,43.43,4.7,Sarawak
Masterscaff Indoor Paka,4.59616554,103.44082192,Ball Sports,32.14,4.1,Terengganu
Kampung Gym (Seelong Branch),1.63085246,103.69367732,Gyms & Studios,56.29,4.9,Johor
TCE Tackles Sdn Bhd,6.16663968,100.49780985,Fishing & Hunting,45.0,4.6,Kedah
Terengganu Royal Golf Club,5.30362038,103.15859484,Golf & Driving Ranges,61.0,4.1,Terengganu
Brothers Futsal Centre,3.01935359,101.41206413,Ball Sports,34.43,4.0,Selangor
Mayi Ayur Yoga,3.23369185,101.63848462,Gyms & Studios,57.86,4.9,Selangor
Surya Yoga bukit tinggi,3.01435648,101.4288407,Gyms & Studios,30.17,3.9,Selangor
"DEWAN BADMINTON D'BARUH MURING, BINJAI BONGKOK",5.22649414,103.08334988,Gyms & Studios,61.43,4.3,Terengganu
Top Speed Fitness - Subang Jaya,3.04819262,101.58423213,Gyms & Studios,35.43,4.0,Selangor
ALTEC Table Tennis,2.97624161,101.79785016,Recreation Centers,55.0,4.5,Selangor
V Spa Reflexology,4.40593473,113.99870636,Saunas & Spas,70.57,4.7,Sarawak
TCE Tackles Sdn Bhd,3.80616194,113.74380145,Fishing & Hunting,61.43,3.9,Sarawak
LEE'S TACKLE HOME MIRI,4.4573727,114.04193619,Fishing & Hunting,59.0,4.5,Sarawak
Pusat Latihan Pasukan Gerakan Am,4.65474398,101.17441516,Shooting & Gun Ranges,50.14,5.0,Perak
Cobra Gym Express Bukit Tinggi 24 Hour Fitness,3.00720054,101.43266115,Gyms & Studios,24.14,4.5,Selangor
Synergy Fitness Seri Kembangan,3.03000763,101.70676974,Gyms & Studios,41.43,4.1,Selangor
TCE Tackles Sdn Bhd,5.39936077,100.37092378,Fishing & Hunting,64.29,4.2,Other
UM Varsity Green,3.12181351,101.65476113,Team Sports & Fields,28.71,4.5,Kuala Lumpur
Yosin Kampung Subang Court,3.1428786,101.53104217,Other Outdoor & Lawn Sports,44.57,4.2,Selangor
The Parenthood @ Sunway Pyramid,3.07278342,101.60186477,Recreation Centers,64.0,4.2,Selangor
Infinity Line Fitness,4.8405513,100.7460804,Gyms & Studios,32.57,4.3,Perak
Eng Kwang Temerloh,3.44127495,102.41680748,Fishing & Hunting,44.43,4.2,Pahang
Level Up Fitness Xpress AEON Kuching Central (24-Hour Gym),1.52676544,110.33520691,Gyms & Studios,60.86,4.6,Sarawak
Vo2 Energym,2.04896634,102.58096952,Gyms & Studios,36.86,4.5,Johor
Kompleks Belia Dan Sukan Negeri Sembilan,2.72601252,101.9751855,Recreation Centers,34.0,4.2,Negeri Sembilan
Kudat Sports Complex,6.88249916,116.8521186,Recreation Centers,44.43,4.1,Sabah
Anytime Fitness Impiria Bukit Tinggi,2.99218018,101.44127567,Gyms & Studios,41.0,4.0,Selangor
TCE Tackles Sdn Bhd,6.43673911,100.42636535,Fishing & Hunting,48.57,4.3,Kedah
Rally Melaka,2.21587086,102.2635629,Recreation Centers,34.14,4.0,Melaka
Frenzy Sports Arena,3.06088038,101.49732059,Recreation Centers,25.71,4.1,Selangor
CrossFit Pahlawan,3.11129997,101.57667325,Gyms & Studios,29.0,4.7,Selangor
TFC FISHING TACKLE SDN BHD,3.4448254,102.41200014,Fishing & Hunting,46.5,4.1,Pahang
Puncak Alam Golf Driving Range,3.21970952,101.4432339,Golf & Driving Ranges,42.29,4.0,Selangor
JSA Arena,3.11490186,101.44987768,Team Sports & Fields,34.71,4.4,Selangor
The LOFT Fitness,2.2402155,102.25850565,Gyms & Studios,41.43,4.8,Melaka
Akademi Tenis Johor (Nusa Duta Tennis Complex),1.47962491,103.67090275,Racquet & Club Sports,59.14,4.3,Johor
Sport 100 Badminton Center,3.00688922,101.45222746,Other Outdoor & Lawn Sports,47.29,4.1,Selangor
ANGLERS' TACKLES,1.55343244,110.3247583,Fishing & Hunting,55.14,4.3,Sarawak
The Olympic Gym,5.41020871,100.32710329,Gyms & Studios,55.86,4.7,Other
UniPutra Golf Club,2.98237046,101.71732837,Golf & Driving Ranges,70.86,3.8,Selangor
The Challenger Sport Centre AMPANG (Book with AFA app),3.14044785,101.77841941,Recreation Centers,32.71,4.3,Selangor
Sanwa Aquatics (KL) Sdn Bhd (Strictly on Wholesale Only),3.18744519,101.57452354,Fishing & Hunting,60.4,3.6,Selangor
The Mines Resort & Golf Club,3.03209224,101.71450188,Golf & Driving Ranges,68.33,4.4,Selangor
Tiara Melaka Golf & Country Club,2.27207132,102.31349895,Golf & Driving Ranges,22.43,4.1,Melaka
De Stadium Futsal KB (wakaf bharu),6.12454266,102.19301641,Ball Sports,37.57,4.4,Kelantan
Workout Station,4.20602354,100.69521829,Gyms & Studios,33.33,4.6,Perak
Haslina Badminton Hall,6.00225579,102.29457645,Other Outdoor & Lawn Sports,28.86,4.2,Kelantan
Fymac Fishing Tackle,1.55209187,103.75741946,Fishing & Hunting,57.5,4.5,Johor
Iron Fitness & Gym,3.20471655,101.73362575,Gyms & Studios,42.14,4.5,Kuala Lumpur
Fitness First Gym - NU Empire,3.08196793,101.5799025,Gyms & Studios,54.57,3.8,Selangor
Fuel Athletics,3.14026791,101.6437598,Gyms & Studios,30.0,4.8,Kuala Lumpur
Michael's Badminton Academy @ Bukit Puchong,2.98554587,101.61814168,Other Outdoor & Lawn Sports,45.29,4.0,Selangor
G Force Gym and Fitness Centre Puncak Alam,3.23854161,101.44437034,Gyms & Studios,43.17,4.2,Selangor
Yogshakti,3.13671921,101.6695507,Gyms & Studios,41.0,4.9,Kuala Lumpur
I Muscles Fitness,4.57139113,101.11094493,Gyms & Studios,45.29,4.8,Perak
Marina Putrajaya,2.90159946,101.66776089,Recreation Centers,26.57,4.3,Putrajaya
TCE Tackles Sdn Bhd,4.77284716,100.91268936,Fishing & Hunting,73.0,4.6,Perak
Fitness First Gym - Klang Bukit Tinggi,2.99294278,101.44259622,Gyms & Studios,55.43,3.6,Selangor
99 Apacs Badminton Centre,2.05438295,102.58335037,Other Outdoor & Lawn Sports,56.57,3.9,Johor
Max Gym,2.29310045,111.88865691,Gyms & Studios,44.29,3.7,Sarawak
Enrich Fitness,3.14058682,101.77824167,Gyms & Studios,45.14,4.1,Selangor
TCE Tackles Sdn Bhd,5.89417369,116.04740623,Fishing & Hunting,69.14,4.3,Sabah
"Amigo Clubhouse @ 16 Sierra, Puchong South",2.96939648,101.65107235,Recreation Centers,52.0,4.0,Selangor
Sports Arena Sentosa,3.08091036,101.66071174,Recreation Centers,42.14,4.3,Kuala Lumpur
Bard Gym,6.13032597,102.24531411,Gyms & Studios,51.71,3.0,Kelantan
"Peak Fitness SOGO, KL City Centre",3.15624685,101.69268522,Gyms & Studios,50.29,4.1,Kuala Lumpur
Fisher Tackles Sdn. Bhd.,3.06492926,101.5216684,Fishing & Hunting,51.86,4.3,Selangor
Kompleks 3K MBSJ,3.06892269,101.59174232,Recreation Centers,45.57,3.9,Selangor
CT Long Badminton Academy,5.44232782,100.53193291,Other Outdoor & Lawn Sports,46.14,4.0,Kedah
Bemban Fishing Club,6.32570832,100.40946985,Fishing & Hunting,53.57,4.3,Kedah
Hangout Community (Metro Avenue),5.38884874,100.31491769,Gyms & Studios,49.29,4.5,Other
Dewan Badminton Ko,3.03090226,101.42114376,Other Outdoor & Lawn Sports,35.43,4.0,Selangor
GR Sports Centre ( piabetainton Centre ),2.67664154,101.97349621,Other Outdoor & Lawn Sports,32.86,4.0,Negeri Sembilan
Arena Sukan,1.52940193,110.35930944,Recreation Centers,43.43,4.3,Sarawak
Damai Golf And Country Club,1.74083295,110.30465789,Golf & Driving Ranges,42.0,4.2,Sarawak
Sakthi School of Yoga,2.97506291,101.7978805,Gyms & Studios,61.86,5.0,Selangor
TCE Tackles Sdn Bhd,3.81136491,103.31286229,Fishing & Hunting,53.14,4.3,Pahang
Mountain View Golf Resort,5.26163454,100.5151337,Golf & Driving Ranges,45.5,3.9,Other
Body Factory Gym & Fitness Centre,3.09054667,101.6121049,Gyms & Studios,23.86,4.1,Selangor
Red Gym & Fitness Centre,4.86521217,100.72766563,Gyms & Studios,37.0,4.6,Perak
TCE Tackles Sdn Bhd,5.51452814,100.53253862,Fishing & Hunting,58.86,4.1,Kedah
Arena Sukan Kuala Lumpur ( ASKL ),3.1929645,101.71457294,Recreation Centers,65.57,4.8,Kuala Lumpur
The Club @ IJM Rimbayu,2.94084046,101.54306046,Saunas & Spas,40.17,4.4,Selangor
Ara Court Badminton Hall,3.12771024,101.60722378,Other Outdoor & Lawn Sports,52.86,3.9,Selangor
Next Revenue Badminton Hall (Book with AFA),3.19968878,101.63567431,Other Outdoor & Lawn Sports,52.29,3.8,Kuala Lumpur
LifenFitness Seventeen,3.12853577,101.63243647,Gyms & Studios,43.71,4.9,Selangor
"Pusat Akuatik Hang Jebat,",2.29311068,102.23064229,Recreation Centers,51.57,3.9,Other
Sunway Sports Center,5.39598617,100.3976535,Recreation Centers,27.86,3.9,Other
Fat 2 Fit,3.0518161,101.77805068,Gyms & Studios,35.43,4.1,Selangor
Kolam Pancing Kelimas Enterprise,4.46094227,100.9904664,Fishing & Hunting,45.57,3.5,Perak
Mission-Q Escape Room,3.07314441,101.60550395,Recreation Centers,54.29,4.8,Selangor
Central Park Dataran Sunway,3.15208961,101.59072589,Recreation Centers,46.43,4.0,Selangor
TCE Tackles Sdn Bhd,5.29184365,103.1357267,Fishing & Hunting,45.43,4.1,Terengganu
D Joran Bagus,1.73007691,103.9009328,Fishing & Hunting,43.83,4.1,Johor
Gympark Fitness HQ,3.01299781,101.43693463,Gyms & Studios,55.29,4.2,Selangor
TCE Tackles Sdn Bhd,2.87911686,101.6631012,Fishing & Hunting,66.57,4.5,Selangor
Permata Sports Complex,5.39164168,100.27390967,Other Outdoor & Lawn Sports,34.57,4.0,Other
"24-Hour Gym: Anytime Fitness Damansara Jaya, Atria Shopping Gallery.",3.12620468,101.61313852,Gyms & Studios,39.14,4.7,Selangor
Mudtrekker Paintball Park,3.1385326,101.49825272,Paintball & Laser,28.83,4.7,Selangor
SUK Selangor Sports Complex,3.08647833,101.51137392,Recreation Centers,32.71,4.2,Selangor
Sport City Indahpura,1.63893253,103.61259687,Recreation Centers,31.43,4.0,Johor
Aero Gym and Fitness Centre,1.51107749,103.86319262,Gyms & Studios,41.86,4.6,Johor
Kompleks 3K MBSJ Serdang Raya,3.03320343,101.70117761,Recreation Centers,45.14,3.9,Selangor
Power Master Gym & Fitness,5.42984768,100.38275765,Gyms & Studios,43.71,4.1,Other
KBS Tackle Sdn Bhd,5.91918298,116.05485813,Fishing & Hunting,42.33,4.2,Sabah
All Stars Futsal,2.70638251,101.99276357,Recreation Centers,22.0,4.3,Negeri Sembilan
TCE Tackles Sdn Bhd,1.49591973,103.73499773,Fishing & Hunting,70.14,4.2,Johor
Mei Jia Mini Market,2.59143538,101.8199683,Fishing & Hunting,71.17,4.2,Negeri Sembilan
"AU5 , KERAMAT,SKATEPARK",3.20142177,101.75297838,Skating & Rinks,34.0,4.0,Selangor
Curves Bandar Sri Damansara,3.19673976,101.61375156,Gyms & Studios,45.43,5.0,Kuala Lumpur
TCE Tackles Sdn Bhd,5.32263318,100.44694568,Fishing & Hunting,61.14,4.2,Other
Chia Fishing Tackle Trading,3.00552824,101.40787825,Fishing & Hunting,66.5,4.3,Selangor
Anytime Fitness Metro Prima Kepong - 24 Hour Gym,3.2119297,101.64161518,Gyms & Studios,36.86,4.2,Kuala Lumpur
Star Fitness Damansara,3.18711466,101.61287727,Gyms & Studios,32.0,3.8,Selangor
Curves Sunway Nexis,3.15090018,101.59235772,Gyms & Studios,46.33,4.8,Selangor
Yoshaa Fishing Store,2.68035777,101.86446729,Fishing & Hunting,45.43,4.7,Negeri Sembilan
GSS Global Sports Solution,5.46497591,100.28157758,Recreation Centers,39.43,4.3,Other
TCE Tackles Sdn Bhd,3.34081136,101.24755369,Fishing & Hunting,44.71,4.3,Selangor
RNJ SWIMMING ACADMEY (KEPONG BRANCH) (formerly known as Swim Splash Academy),3.20904795,101.62866488,Recreation Centers,64.5,4.8,Kuala Lumpur
TCE Tackles Sdn Bhd,4.58526314,101.04114331,Fishing & Hunting,44.29,4.3,Perak
Cha Yong Badminton Center,1.85526453,102.92722188,Other Outdoor & Lawn Sports,33.86,4.2,Johor
Gemas Golf Resort,2.57127896,102.60227924,Golf & Driving Ranges,25.71,3.5,Negeri Sembilan
Kolam Memancing Batu Arang 123,3.30973814,101.46336581,Fishing & Hunting,21.43,4.2,Selangor
INF Badminton Court | Jalan Fatimah | 鼎立羽球场,1.8471106,102.92440517,Other Outdoor & Lawn Sports,49.43,4.4,Johor
YTP Sports Arena,3.01351662,101.45451615,Team Sports & Fields,31.57,4.0,Selangor
Lifestyle Gym,2.29142973,111.83544259,Gyms & Studios,62.14,4.3,Sarawak
Cobra Gym Express Senawang 24 Hour Fitness,2.70132974,101.97791752,Gyms & Studios,37.29,4.3,Negeri Sembilan
X Park Sunway City Ipoh,4.6208178,101.14598757,Recreation Centers,33.71,4.1,Perak
TCE Tackles Sdn Bhd,4.46640096,101.03976888,Fishing & Hunting,69.71,4.2,Perak
Perniagaan Cabaran Belantara,5.62345237,100.46179957,Fishing & Hunting,58.57,4.0,Kedah
Triple T Boxing Academy,3.07131967,101.59776387,Gyms & Studios,26.14,4.8,Selangor
TCE Tackles Sdn Bhd,2.97404068,101.76864559,Fishing & Hunting,62.86,4.1,Selangor
Seven Star Gym & Fitness,5.28845311,100.27876648,Gyms & Studios,43.43,4.9,Penang
Bandar Utama Golf Course,3.14464133,101.6007248,Golf & Driving Ranges,45.0,3.8,Selangor
Fish Garden Sungai Janggut Jeram,3.17301912,101.31015495,Fishing & Hunting,49.29,3.6,Selangor
Koryo Taekwondo Club Bandar Bukit Raja Klang (Koryo Taekwondo Excellence Centre),3.08483757,101.4405041,Gyms & Studios,54.33,4.9,Selangor
Bukit Kemuning Golf & Country Resort,2.98487738,101.5214038,Golf & Driving Ranges,44.5,4.0,Selangor
ABOVE FITNESS RAWANG,3.31815544,101.53429842,Gyms & Studios,47.71,4.6,Selangor
Mahkota Hills Club House,2.87921735,101.91162596,Recreation Centers,22.43,4.1,Negeri Sembilan
ATSA Sabah Taekwondo,6.03324973,116.12416949,Martial Arts & Dojos,32.0,4.9,Sabah
Olympic Sports & Fitness Sdn Bhd,5.38482151,100.30822794,Gyms & Studios,34.71,4.4,Penang
Body Engineers Fitness,3.16691418,101.60410285,Gyms & Studios,36.71,4.6,Selangor
Tambun Herbal Sauna,5.27189533,100.44502844,Saunas & Spas,53.0,4.3,Penang
TCE Tackles Sdn Bhd,1.83137234,103.30513847,Fishing & Hunting,55.0,4.5,Johor
Pro One Badminton Court,3.06813258,101.62205687,Other Outdoor & Lawn Sports,36.29,4.0,Selangor
Batu Pahat Golf Club,1.85615066,102.94617264,Golf & Driving Ranges,40.86,4.0,Johor
PLSC GEL BLASTER MALAYSIA,3.14816855,101.75371112,Shooting & Gun Ranges,63.0,4.0,Selangor
Kolam Pancing Udang Galah kg subang,3.15849965,101.52528693,Fishing & Hunting,71.0,4.1,Selangor
Lite Fitness Raub,3.7768038,101.85229316,Gyms & Studios,50.17,4.4,Pahang
M factory Gym,1.85890439,102.92617868,Gyms & Studios,36.29,4.8,Johor
Trobong Bay,6.12791615,116.13154688,Fishing & Hunting,25.29,3.9,Sabah
Futsal MG2 Teras Jernang,2.9203013,101.75340438,Gyms & Studios,24.43,4.3,Selangor
"Gympark Fitness, Klang Utama",3.08418635,101.4072181,Gyms & Studios,37.71,4.4,Selangor
MST Golf Super Store Plaza Shell,5.97722862,116.07218043,Golf & Driving Ranges,45.71,4.4,Sabah
Hutan Lipur Ulu Bendul,2.73012724,102.07617432,Recreation Centers,38.0,4.5,Negeri Sembilan
Master Badminton Club (MBC) Gunung Rapat,4.57122513,101.11108987,Other Outdoor & Lawn Sports,54.86,4.3,Perak
Our Gym,3.11821828,101.61720735,Gyms & Studios,40.0,4.1,Selangor
"Gympark Fitness, PJ222",3.09681712,101.6291185,Gyms & Studios,57.43,4.6,Selangor
LifenFitness Bukit Bintang,3.14032334,101.70517977,Gyms & Studios,15.86,4.8,Kuala Lumpur
TCE Tackles Sdn Bhd,4.21991324,103.41778937,Fishing & Hunting,63.0,4.4,Terengganu
Kolam Pancing Air Masin ADURO,3.20261027,101.59860866,Fishing & Hunting,34.86,3.7,Selangor
Dewan Badminton Game Point,1.81767429,102.95522178,Other Outdoor & Lawn Sports,39.43,4.4,Johor
badminton court,1.52473128,103.67007677,Other Outdoor & Lawn Sports,31.29,4.1,Johor
Samarahan Country Club,1.4698373,110.4185697,Golf & Driving Ranges,55.86,4.0,Sarawak
Shah Alam Extreme Park,3.08651342,101.53998673,Skating & Rinks,51.29,4.3,Selangor
Celebrity Fitness Gym - Endah Parade,3.06329365,101.6925255,Gyms & Studios,48.29,3.5,Kuala Lumpur
Kolam Pancing Big Boss,3.25121756,101.52598755,Fishing & Hunting,34.14,3.8,Selangor
TS Sport Complex Sdn. Bhd.,1.48596926,103.92255492,Recreation Centers,32.71,4.0,Johor
Falim Sports Centre,4.58080682,101.05451838,Recreation Centers,46.71,4.1,Perak
Kolam Memancing Udang Galah Abang Roi,3.24407059,101.30962948,Fishing & Hunting,41.0,4.1,Selangor
Bukit Banang Golf & Country Club,1.80273514,102.96628336,Golf & Driving Ranges,66.29,3.6,Johor
TCE Tackles Sdn Bhd,6.10776284,100.36199756,Fishing & Hunting,66.43,4.1,Kedah
TCE Tackles Sdn Bhd,2.98158914,101.40974541,Fishing & Hunting,61.86,4.3,Selangor
TCE Tackles Sdn Bhd,1.52467524,110.33492971,Fishing & Hunting,61.43,4.2,Sarawak
Anytime Fitness Tamarind Square,2.91964378,101.63351323,Gyms & Studios,42.57,4.2,Selangor
Pura Kencana Swimming Pool,1.8526194,103.02207285,Gyms & Studios,39.14,3.9,Johor
Penang Golf Club,5.33593497,100.28111059,Golf & Driving Ranges,55.71,4.1,Other
Oops! Gym Steam and Sauna,3.14299211,101.72563529,Saunas & Spas,66.71,3.4,Kuala Lumpur
One More Rep Gymnasium Sri Serdang,3.00930473,101.71153996,Gyms & Studios,48.43,4.4,Selangor
The Sports Barn PJ,3.11448249,101.62679646,Recreation Centers,39.43,3.9,Selangor
The Optimum Fitness Centre,6.10910747,100.35890614,Gyms & Studios,41.86,3.9,Kedah
Batu Berendam Badminton,2.25092217,102.24490244,Recreation Centers,25.71,4.2,Melaka
Sunway Pyramid Ice,3.07216088,101.60491939,Skating & Rinks,62.86,4.3,Selangor
Equine Park Fitness Seri Kembangan,2.99698991,101.67521549,Gyms & Studios,39.43,4.4,Selangor
W.O.S Petaling Jaya,3.09484667,101.62856844,Recreation Centers,29.43,4.5,Selangor
Orna Golf & Country Club,2.26956646,102.33706796,Golf & Driving Ranges,54.43,3.8,Melaka
1stopfishing Shah Alam,3.06566293,101.46947564,Fishing & Hunting,59.57,4.3,Selangor
Kajang United BC (KUBC),2.98407717,101.81166416,Other Outdoor & Lawn Sports,62.0,3.7,Selangor
D'Popeye Gym,3.1982307,101.72587277,Gyms & Studios,32.71,4.6,Kuala Lumpur
Level Up Fitness Xpress Kuala Terengganu,5.33007459,103.13214942,Gyms & Studios,52.0,4.3,Terengganu
Impian Golf & Country Club,3.01997237,101.79515765,Golf & Driving Ranges,69.83,4.1,Selangor
TCE Tackles Sdn Bhd,5.63924962,100.48046068,Fishing & Hunting,53.14,4.0,Kedah
Muscle Construct Gym,5.67125659,100.50613849,Gyms & Studios,43.14,4.7,Kedah
SEVEN STAR GYM GELUGOR,5.36764076,100.30753271,Gyms & Studios,56.71,4.5,Other
Shah Alam Badminton Centre,3.06484655,101.52361269,Recreation Centers,58.0,4.1,Selangor
Kompleks Sukan USM,5.35742652,100.30575095,Recreation Centers,43.14,4.4,Other
Winning Futsal,4.84416896,100.69383213,Recreation Centers,31.57,4.2,Other
Cyberjaya Paintball Park,2.93937482,101.6420006,Paintball & Laser,43.29,4.5,Other
Ultimate Sporthaus,2.82208237,101.78815655,Recreation Centers,27.29,4.1,Negeri Sembilan
Leonian Malaysia Sdn Bhd (HQ),3.10746229,101.54272396,Golf & Driving Ranges,55.0,4.8,Selangor
TCE Tackles Sdn Bhd,5.60904536,100.48006725,Fishing & Hunting,49.57,4.7,Kedah
Monarchy MMA | Bangsar Branch,3.13150575,101.6692439,Martial Arts & Dojos,47.0,4.8,Kuala Lumpur
Blue Water,1.48217583,103.77206847,Fishing & Hunting,54.57,4.4,Johor
Villain Barbell Club,3.15439066,101.59157728,Gyms & Studios,47.86,4.6,Selangor
Kompleks Sukan PKNS,3.09452326,101.59842089,Recreation Centers,30.29,4.3,Selangor
FitLab Studio & Gym,2.71700391,101.92254932,Gyms & Studios,27.0,4.8,Negeri Sembilan
USJ 23 Badminton Court,3.0248806,101.58591045,Other Outdoor & Lawn Sports,32.0,3.8,Selangor
Bangi Golf Resort,2.95725523,101.76239175,Golf & Driving Ranges,29.71,4.1,Selangor
Ponderosa Golf & Country Resort,1.51294197,103.78159297,Golf & Driving Ranges,69.57,4.1,Johor
Tun Razak National Tennis Centre - Jalan Duta,3.17427522,101.67395628,Racquet & Club Sports,65.86,4.4,Kuala Lumpur
Kungfu Dojo Sabah,5.96807883,116.08140067,Gyms & Studios,34.67,4.8,Sabah
Hulu Langat Fishing Resort & Restaurant,3.14066171,101.8278156,Fishing & Hunting,14.71,4.2,Selangor
Hasya Joran,2.98925766,101.66889284,Fishing & Hunting,51.14,4.0,Selangor
Heartcore Angler,2.93159227,101.76245182,Fishing & Hunting,53.17,4.7,Selangor
Level Up Fitness Xpress BDC (24-Hour Gym),1.50696777,110.35818368,Gyms & Studios,55.67,4.2,Sarawak
FOR U FITNESS,6.43573133,100.43836946,Gyms & Studios,50.14,4.6,Kedah
Kota Damansara Driving Range,3.15071293,101.59348047,Golf & Driving Ranges,51.0,4.0,Selangor
Brader Rosly Island Hopping,6.31664974,99.84838898,Water & Aquatic Sports,49.14,4.4,Kedah
TCE Tackles Sdn Bhd,2.43073846,103.8306042,Fishing & Hunting,64.29,4.2,Johor
Patikang Futsal Club,5.34644481,116.12361717,Ball Sports,48.57,4.8,Sabah
TCE Tackles Sdn Bhd,1.49925353,103.81351134,Fishing & Hunting,56.57,4.2,Johor
X Park Sendayan,2.67631034,101.8611204,Recreation Centers,24.14,4.4,Negeri Sembilan
Infinity Gym Fitness,5.38783254,100.55813623,Gyms & Studios,39.71,4.7,Kedah
OUG Shuttle Bug Sports Centre,3.07387512,101.67032924,Other Outdoor & Lawn Sports,22.0,4.1,Kuala Lumpur
DR Y & S FITNESS CENTRE KK,2.99051414,101.54434755,Gyms & Studios,60.0,4.9,Selangor
Kolam Pancing KMK,5.78210063,100.68349456,Fishing & Hunting,60.17,4.2,Kedah
EXCELL GYM FITNESS CENTER LARKIN IDAMAN,1.49438275,103.7514088,Gyms & Studios,46.83,4.4,Johor
Aurora Studio,3.22655457,101.56444192,Gyms & Studios,66.67,4.7,Selangor
TCE Tackles Sdn Bhd,1.47266426,110.32559742,Fishing & Hunting,55.0,4.2,Sarawak
U-Fitness Gym Centre,1.53272194,103.79175547,Gyms & Studios,50.0,4.6,Johor
BELIEVE FITNESS ATIVO PLAZA,3.19672278,101.61358045,Gyms & Studios,30.86,4.0,Kuala Lumpur
Elements Badminton Court,3.04725239,101.56239117,Recreation Centers,41.0,4.3,Selangor
Gym Story Fitness Centre,1.56271513,103.73174992,Gyms & Studios,39.29,4.7,Johor
Futsal Kg.melayu Subang,3.14480527,101.52903533,Ball Sports,22.29,3.9,Selangor
Fairview Eduresort @ Port Dickson,2.41831959,101.89110559,Other Outdoor & Lawn Sports,36.57,3.8,Negeri Sembilan
TCE Tackles Sdn Bhd,6.22848235,100.41733776,Fishing & Hunting,59.86,4.3,Kedah
Angelus Fitness Metrocity,1.56920957,110.3041398,Gyms & Studios,43.57,4.5,Sarawak
Forum Klang Badminton Centre,3.04950964,101.44715831,Other Outdoor & Lawn Sports,29.0,4.5,Selangor
GoFit - Central i-City Mall,3.06221322,101.47929874,Gyms & Studios,50.57,4.0,Selangor
Mines Driving Range,3.02952641,101.71735916,Golf & Driving Ranges,29.29,3.6,Selangor
Star Gym Health Centre Kuantan,3.82937874,103.32536427,Gyms & Studios,49.29,4.5,Pahang
Lavana 2 Sports Centre (Subang),3.0427734,101.59595571,Other Outdoor & Lawn Sports,55.43,4.3,Selangor
TCE Tackles Sdn Bhd,5.38543871,100.55524664,Fishing & Hunting,73.86,3.9,Kedah
Fitnacle Subang,3.04780112,101.57720236,Gyms & Studios,62.86,4.8,Selangor
"Peak Fitness Citta Mall, Ara Damansara",3.11296346,101.57604777,Gyms & Studios,39.86,4.3,Selangor
Kama'A Rejuvenation & Wellbeing Spa,5.97568192,116.07019783,Saunas & Spas,43.57,4.8,Sabah
Jari Bayu Spa & Reflexology,5.94040992,116.06799744,Saunas & Spas,50.0,4.3,Sabah
RFC Fitness,3.11903017,101.67127628,Gyms & Studios,47.57,4.6,Kuala Lumpur
TCE Tackles Sdn Bhd,2.50058357,102.8227553,Fishing & Hunting,59.86,4.4,Johor
Fitness First Gym - Setia City Mall,3.10895672,101.45876133,Gyms & Studios,42.43,3.8,Selangor
Footballhub @ Twentyfive.7,2.95463591,101.54986093,Team Sports & Fields,45.86,4.3,Selangor
TCE Tackles Sdn Bhd,5.35755845,116.17296116,Fishing & Hunting,74.86,4.0,Sabah
"Hockey Stadium, Universiti Sains Malaysia",5.35406884,100.29201229,Team Sports & Fields,36.0,4.5,Penang
TCE Tackles Sdn Bhd,4.4197226,114.01434159,Fishing & Hunting,54.71,4.4,Sarawak
Futsalhub @ Sunsuria Avenue,3.15520937,101.58722112,Recreation Centers,29.0,4.1,Selangor
Master Badminton Club | MBC | Jalan Kuala Kangsar,4.63304027,101.08433351,Other Outdoor & Lawn Sports,45.14,4.4,Perak
MBPP Relau Sport Complex,5.34217184,100.26901012,Recreation Centers,63.0,4.4,Other
TCE Tackles Sdn Bhd,2.82001757,101.79173966,Fishing & Hunting,67.0,4.1,Negeri Sembilan
TCE Tackles Sdn Bhd,2.20455331,102.21779185,Fishing & Hunting,72.14,4.2,Melaka
TCE Tackles Sdn Bhd,5.92364313,116.09593686,Fishing & Hunting,70.14,4.2,Sabah
TCE Tackles Sdn Bhd,6.32645432,99.83996233,Fishing & Hunting,58.71,4.3,Kedah
TCE Tackles Sdn Bhd,3.93532668,102.37196654,Fishing & Hunting,51.71,4.1,Pahang
KB Futsal Arena,6.1416009,102.30441192,Ball Sports,35.43,4.0,Kelantan
Fitness Star,4.22769731,100.68944114,Gyms & Studios,55.67,4.5,Perak
TCE Tackles Sdn Bhd,4.63149344,101.08251071,Fishing & Hunting,59.0,4.3,Perak
Anytime Fitness Sunway Big Box,1.39744781,103.62343222,Gyms & Studios,29.86,4.8,Johor
Underground Fitness,3.1976625,101.70965641,Gyms & Studios,39.86,4.7,Kuala Lumpur
Hitfat,6.09905076,102.26621889,Gyms & Studios,33.33,4.9,Kelantan
TiJay Sports (TJS) Gymnastics Academy,3.08853291,101.63675856,Gyms & Studios,42.83,5.0,Selangor
Palm Garden Golf Club,2.96537426,101.71412565,Golf & Driving Ranges,50.86,4.3,Putrajaya
Balakong Badminton Sports Center,3.02815758,101.74482086,Other Outdoor & Lawn Sports,50.86,4.3,Selangor
ZM Pro Fishing Shop- menjual peralatan memancing,5.34465049,100.48516325,Fishing & Hunting,53.83,4.4,Other
Proshuttle Balakong Badminton Court,3.03435464,101.75870245,Recreation Centers,27.14,4.2,Selangor
TCE Tackles Sdn Bhd,6.11851776,100.36144714,Fishing & Hunting,54.43,3.7,Kedah
KSL Sports,2.98980567,101.61365077,Recreation Centers,34.86,4.1,Selangor
Pinnacle Fitness,3.11644026,101.66512437,Gyms & Studios,46.5,4.9,Kuala Lumpur
Fitworx Fitness Centre @ Amcorp Mall,3.10475038,101.64442795,Gyms & Studios,38.71,4.0,Selangor
MYSA Futsal & Gym,3.45363875,102.40257147,Gyms & Studios,51.43,4.3,Pahang
Champion Badminton Courts & Pro Shop,4.36354321,113.98293359,Other Outdoor & Lawn Sports,52.0,4.5,Sarawak
TLS Fitness Center Sdn Bhd,2.98272274,101.77993992,Gyms & Studios,40.0,4.6,Selangor
Furious Bootcamp,3.1022322,101.73247324,Gyms & Studios,30.57,4.7,Kuala Lumpur
Level Up Fitness City Mall (Premium 24-Hour Gym),5.96113065,116.09448294,Gyms & Studios,67.86,4.4,Sabah
MST Golf Pelangi Driving Range,1.48277364,103.78021918,Golf & Driving Ranges,61.86,3.8,Johor
Level Up fitness Segamat,2.51390814,102.82041367,Gyms & Studios,45.0,3.6,Johor
Life Hot Yoga @ Mont Kiara,3.16689295,101.64928825,Gyms & Studios,45.57,5.0,Kuala Lumpur
Kedai Pancing Perniagaan Ewatt - Cawangan Jerteh,5.74217791,102.45805421,Fishing & Hunting,65.83,4.1,Terengganu
Champion Futsal Court,4.36468231,113.98211032,Ball Sports,36.0,4.3,Sarawak
Three Brother Ooi Sports Centre,5.63301959,100.48065784,Other Outdoor & Lawn Sports,47.43,4.0,Kedah
JPS TACKLE,1.51983273,103.82198668,Fishing & Hunting,65.57,4.2,Johor
Spacerubix,3.02099871,101.60916749,Recreation Centers,47.57,4.4,Selangor
Seven Star gym Relau,5.33187281,100.27447623,Gyms & Studios,46.14,4.6,Penang
First Traxx Ski Snowboard,3.11606911,101.63697688,Gyms & Studios,42.4,3.8,Selangor
Air Force Recreation Club,3.12506181,101.53438457,Golf & Driving Ranges,63.14,4.2,Selangor
Jump Street Asia (Kuala Lumpur),3.11717672,101.63145651,Recreation Centers,54.33,4.6,Selangor
Level Up Fitness Xpress SkyArena (24-Hour Gym),5.9367213,116.08075775,Gyms & Studios,44.67,4.2,Sabah
Sports Prima Sdn Bhd,1.52896628,103.75717046,Ball Sports,36.0,4.2,Johor
TCE Tackles Sdn Bhd,2.20168211,102.27060125,Fishing & Hunting,59.86,4.1,Melaka
Wela Trading,5.92693047,102.24273423,Fishing & Hunting,67.83,4.8,Kelantan
Prima Badminton Centre,2.98347181,101.58728465,Other Outdoor & Lawn Sports,37.86,4.2,Selangor
TCE Tackles Sdn Bhd,4.29452754,100.75110351,Fishing & Hunting,61.86,4.1,Perak
Youth and Sports Complex of Johor,1.49597522,103.74732933,Recreation Centers,24.14,4.1,Johor
Anytime Fitness Sunway Geo,3.06518347,101.60684437,Gyms & Studios,45.29,3.6,Selangor
FitClub 24-Hour Gym,2.99855152,101.52346871,Gyms & Studios,26.57,4.5,Selangor
MST Golf Outlet Store Kelana Parkview,3.10110434,101.59665619,Golf & Driving Ranges,49.57,3.9,Selangor
Anytime Fitness High Park Suite Kelana Jaya,3.1017483,101.59635981,Gyms & Studios,24.14,4.7,Selangor
Anytime Fitness,3.07796938,101.58396454,Gyms & Studios,29.86,4.1,Selangor
Michael's Badminton Academy @ Port Dickson,2.56024511,101.80377867,Other Outdoor & Lawn Sports,43.57,3.7,Negeri Sembilan
Fitness by Platinum Pro Gym,3.15315632,101.77271686,Gyms & Studios,32.71,4.2,Selangor
XZone Futsal Center,4.71755739,103.41689339,Gyms & Studios,20.29,4.7,Terengganu
TCE Tackles Sdn Bhd,1.23404054,111.46158594,Fishing & Hunting,61.14,4.6,Sarawak
Ruat Derhaka,1.43971034,103.93026989,Fishing & Hunting,43.71,4.8,Johor
Zinc Fishing Tackle Sdn Bhd,3.07270098,101.6499147,Fishing & Hunting,62.33,4.5,Kuala Lumpur
Burning Jack Fitness Studio,3.07679213,101.75517588,Gyms & Studios,27.71,4.5,Selangor
Kolam Pancing Udang RIINFA Hulu Langat,3.0956406,101.7987346,Fishing & Hunting,50.83,4.3,Selangor
SuperPark Malaysia,3.15917284,101.71041172,Recreation Centers,61.86,4.8,Kuala Lumpur
The Iron Gym,3.07638741,101.48613462,Gyms & Studios,34.71,4.0,Selangor
Anytime Fitness Shaftsbury Putrajaya,2.94014591,101.71074983,Gyms & Studios,34.43,4.7,Putrajaya
Setia Alam Badminton Arena,3.10457918,101.47506335,Team Sports & Fields,39.71,4.4,Selangor
Chop Kim Tong Hoe,3.4230625,101.18102068,Fishing & Hunting,64.0,4.2,Selangor
Coliseum Fitness,3.15025517,101.58861051,Gyms & Studios,60.57,4.9,Selangor
"Savage Gears Gym (Taman SEA, PJ)",3.11705931,101.61106255,Gyms & Studios,47.86,4.9,Selangor
High Reps Gym & Fitness,5.31960219,100.26716676,Gyms & Studios,38.17,4.6,Penang
Cobra Gym Express Sg Udang Klang 24 Hour Fitness,3.04083442,101.42294283,Gyms & Studios,44.0,4.4,Selangor
Celebrity Fitness Gym - Bangsar Village 2,3.13033197,101.66886931,Gyms & Studios,56.71,3.8,Kuala Lumpur
Super Sports Badminton,1.52664556,103.72231844,Other Outdoor & Lawn Sports,32.29,4.0,Johor
Futsal Complex Presint 18,2.91787125,101.69599615,Recreation Centers,38.86,4.2,Putrajaya
Fitness First Gym - The Curve,3.15763693,101.60767866,Gyms & Studios,49.14,3.9,Selangor
Tanjong Puteri Golf B/C course,1.44023058,103.95172022,Golf & Driving Ranges,38.29,4.0,Johor
CATS Fitness Gym (CFG),6.09842469,100.36145998,Gyms & Studios,48.29,3.7,Kedah
Ace Tennis Academy (M) Sdn. Bhd.,3.11478869,101.63629385,Racquet & Club Sports,39.0,4.8,Selangor
De X Gym Fitness & Studio,1.47037774,110.41622432,Gyms & Studios,38.29,4.2,Sarawak
Kelab Sosial Dan Rekreasi Lembaga Pelabuhan Kelang,2.9985286,101.39124478,Recreation Centers,22.14,4.3,Selangor
LifenFitness TTDI,3.13945129,101.6275968,Gyms & Studios,33.29,4.9,Kuala Lumpur
Kolam Pancing Udang Harimau GP,2.9731718,101.52775718,Recreation Centers,70.67,3.9,Selangor
FireFit - Batai Village | Fire Station 1,3.14917289,101.65891538,Gyms & Studios,34.71,4.7,Kuala Lumpur
TCE Tackles Sdn Bhd,3.82560475,103.33294152,Fishing & Hunting,64.29,4.1,Pahang
House Of Champions MY,3.04273953,101.5966857,Gyms & Studios,37.86,4.7,Selangor
IGFA Fishing Sports Enterprise,3.12978745,101.76256655,Fishing & Hunting,56.17,4.4,Selangor
Yee Sport Fishing,3.32652872,101.57830472,Fishing & Hunting,50.5,4.2,Selangor
Padang Bola Sepak UiTM Seremban,2.67011038,101.93220682,Ball Sports,47.43,4.3,Negeri Sembilan
TCE Tackles Sdn Bhd,5.67132798,100.50614745,Fishing & Hunting,68.86,4.2,Kedah
Celebrity Fitness Gym - Sunway Pyramid,3.07190237,101.60476955,Gyms & Studios,46.71,3.5,Selangor
Fitness Score 24/7 Gym,2.9467315,101.54020919,Gyms & Studios,26.0,4.8,Selangor
Anytime Fitness PJ33,3.11077792,101.63470837,Gyms & Studios,34.29,3.7,Selangor
Best Bola-Bola Sport Centre,5.42031422,100.3812729,Ball Sports,30.43,4.1,Penang
Maple Gold Recreation Center,5.42562682,100.32057544,Recreation Centers,41.43,4.1,Other
89 Arena Klang,3.01909641,101.45554826,Recreation Centers,38.14,4.2,Other
TCE Tackles Sdn Bhd,6.08686867,102.23574617,Fishing & Hunting,58.43,4.3,Kelantan
R7 Futsal Centre,6.45950883,100.24878597,Ball Sports,26.86,4.2,Perlis
Pusat Bina Bodytalk Gym & Sauna,3.6855729,101.52590067,Gyms & Studios,54.57,3.5,Perak
Siong Fishing Tackle,3.37597126,101.40654379,Fishing & Hunting,49.57,4.6,Selangor
Bubble Sports Complex Cheras,3.09083729,101.76009038,Recreation Centers,48.86,4.2,Selangor
TCE Tackles Sdn Bhd,5.32041695,103.12661594,Fishing & Hunting,54.14,4.0,Terengganu
Seven Star Gym Batu Lancang,5.3928404,100.30373132,Gyms & Studios,24.86,4.9,Penang
Real Fishing Tackle,3.81168832,103.32647834,Fishing & Hunting,62.17,4.1,Pahang
Verticale Malaysia Sdn Bhd,3.24366554,101.69415617,Gyms & Studios,57.0,4.8,Selangor
TCE Tackles Sdn Bhd,2.02223519,103.30882747,Fishing & Hunting,66.57,4.5,Johor
Palm Resort Golf & Country Club,1.65162163,103.65093295,Golf & Driving Ranges,66.0,4.2,Johor
Andalas Sports Complex,3.0148994,101.44817037,Recreation Centers,38.43,4.1,Selangor
Celebrity Fitness Gym - Bukit Rimau,2.99892272,101.52587668,Gyms & Studios,36.57,4.2,Selangor
Kedai Pancing Marang Tackle Ent,5.21312982,103.20168094,Fishing & Hunting,49.0,4.4,Terengganu
KakiGym Kajang,3.00617089,101.80289861,Gyms & Studios,44.5,4.4,Selangor
Olympia Badminton Arena,5.9968105,116.12015557,Team Sports & Fields,46.57,4.4,Sabah
Revelation Republic,3.11698196,101.61093667,Gyms & Studios,50.17,4.8,Selangor
Ranau Borneo Paragliding,5.99246626,116.68760389,Recreation Centers,59.71,4.7,Sabah
Java And Fitness,1.53181531,110.38085611,Gyms & Studios,38.43,4.2,Sarawak
TCE Tackles Sdn Bhd,2.57013015,101.82775753,Fishing & Hunting,70.86,4.4,Negeri Sembilan
Kolam Pancing Udang Galah Batu 8,5.47007184,100.5416821,Fishing & Hunting,51.14,4.4,Kedah
Chendering Futsal,3.79154916,103.25001365,Recreation Centers,37.43,4.2,Pahang
Telok Tongkah Enterprise,2.76085554,101.43604516,Fishing & Hunting,52.86,3.9,Selangor
SS2 Fishing Fever Angler,3.12214857,101.62455058,Fishing & Hunting,45.17,4.9,Selangor
Staffield Country Resort Bhd,2.8587502,101.85880977,Golf & Driving Ranges,65.29,4.1,Negeri Sembilan
Project Rock Climbing Gym,5.43696212,100.30631928,Gyms & Studios,58.71,4.7,Other
KHTP Sports Complex,5.42322955,100.57465475,Recreation Centers,28.0,4.2,Kedah
Usan Trading Company,3.13759993,101.37254663,Fishing & Hunting,62.86,4.1,Selangor
DMS Sports Centre,2.91703819,101.86156676,Recreation Centers,30.0,4.3,Selangor
Hup Lee Fishing Tackle,2.21351142,103.53757448,Fishing & Hunting,82.83,4.5,Johor
Kolam Pancing Syawal,1.47099461,103.85672766,Fishing & Hunting,21.0,3.9,Johor
SRI RAMPAI FISHING TACKLE,3.19468241,101.72734323,Fishing & Hunting,64.0,4.4,Kuala Lumpur
Kemaman Golf Driving Range,4.19003254,103.38997171,Golf & Driving Ranges,49.71,4.0,Terengganu
Pusat Sukan Universiti Malaya,3.13007644,101.6573519,Recreation Centers,63.2,4.4,Kuala Lumpur
Gopi K-Mark Gym,2.99106873,101.77963412,Gyms & Studios,45.67,4.0,Selangor
Club27fitness,1.53116477,103.78953798,Gyms & Studios,22.0,4.5,Johor
KOA FITNESS,3.1655452,101.64366343,Gyms & Studios,30.29,4.9,Kuala Lumpur
Carey Island Golf Club,2.90898251,101.35419297,Golf & Driving Ranges,48.86,4.2,Selangor
Anytime Gym & Fitness,5.92583543,116.08971333,Gyms & Studios,38.43,4.7,Sabah
Scuba Junkie,4.47891229,118.61101027,Water & Aquatic Sports,64.43,4.3,Sabah
TCE Tackles Sdn Bhd,3.69779042,101.51047997,Fishing & Hunting,61.71,4.5,Perak
TCE Tackles Sdn Bhd,3.18764029,113.06880688,Fishing & Hunting,64.29,4.4,Sarawak
Hamdhy & Co.,2.83391253,101.59512949,Recreation Centers,28.29,4.2,Selangor
BKS IYENGAR YOGASHALA,3.0984081,101.67503831,Gyms & Studios,54.29,4.7,Kuala Lumpur
Galacticos de Futsal Ampang,3.10749037,101.74902032,Ball Sports,37.43,4.3,Selangor
Active Hydro Control Sdn Bhd,3.05586434,101.50730691,Ball Sports,58.8,4.3,Selangor
Anytime Fitness Bandar Utama (Centrepoint),3.1381661,101.60785816,Gyms & Studios,30.86,4.5,Selangor
Grand Fitness,5.34361358,100.4340132,Gyms & Studios,39.57,4.2,Penang
DEWAN SERBA GUNA KAMPUNG SRI FAJAR,3.71701182,103.1283629,Other Outdoor & Lawn Sports,44.29,4.2,Pahang
KB | Kwok Bao | 國寶 Badminton Court,4.57551035,101.05522057,Other Outdoor & Lawn Sports,39.14,4.3,Perak
Heng Fishing Tackle,1.60058319,103.81675381,Fishing & Hunting,36.83,4.2,Johor
"Peak Fitness Gurney Plaza, Penang",5.43804814,100.30731078,Gyms & Studios,44.0,4.4,Other
Senwell Fishing Park,4.92009532,100.73787524,Fishing & Hunting,41.71,4.4,Perak
APACS BADMINTON CENTRE,2.03388276,102.56978437,Other Outdoor & Lawn Sports,50.29,4.3,Johor
Ewako MMA,6.03147946,116.13244039,Gyms & Studios,51.29,4.5,Sabah
EZ Blast Gym,3.23942037,101.69784094,Gyms & Studios,45.86,4.2,Kuala Lumpur
TCE Tackles Sdn Bhd,4.5156931,103.44237472,Fishing & Hunting,66.29,4.2,Terengganu
TCE Tackles Sdn Bhd,3.01003694,101.55615892,Fishing & Hunting,11.43,4.2,Selangor
Burly Gym Fitness Centre,2.0484145,102.58398534,Gyms & Studios,44.0,4.6,Johor
关丹建造行武术醒狮团,3.80065555,103.31228654,Gyms & Studios,31.14,4.7,Pahang
TCE Tackles Sdn Bhd,5.3315273,100.29450911,Fishing & Hunting,52.71,4.1,Penang
One Badminton Academy,3.20537487,101.64968167,Other Outdoor & Lawn Sports,52.43,4.2,Kuala Lumpur
Supersharkz Swim School @KotaDamansara,3.15580077,101.56530172,Water & Aquatic Sports,36.83,4.5,Selangor
Tanjong Puteri Golf and Resort,1.44184798,103.93764656,Golf & Driving Ranges,61.57,4.1,Johor
Just in Sports Centre,1.53081251,103.81452971,Other Outdoor & Lawn Sports,42.43,4.4,Johor
Celebrity Fitness Gym - Klang Parade,3.06379239,101.45139165,Gyms & Studios,58.57,3.5,Selangor
Ozone Fitness,3.09531495,101.62901911,Gyms & Studios,29.0,4.9,Selangor
Dynamic Gym & Fitness Centre,1.51735964,110.32390979,Gyms & Studios,47.86,4.3,Sarawak
Arena Jubli bangi,2.95610498,101.77514482,Team Sports & Fields,24.57,4.5,Selangor
D'Star Arena Complex,3.14041395,101.77854013,Recreation Centers,23.86,3.4,Selangor
Journey Indoor Cycling Studio,3.15156666,101.66124716,Gyms & Studios,68.86,4.7,Kuala Lumpur
Sungai Chua Food & Sports Centre,2.98959352,101.77691447,Recreation Centers,55.86,3.6,Selangor
Anytime Fitness Seksyen 9 Shah Alam,3.08579217,101.52114653,Gyms & Studios,32.71,4.6,Selangor
Lavana Sports Centre,3.2022259,101.7157882,Recreation Centers,50.0,4.2,Kuala Lumpur
Hyperflex Fitness,3.22855657,101.69523971,Gyms & Studios,45.29,4.3,Selangor
DO ARENA 163,3.16651837,101.64922361,Ball Sports,61.14,4.1,Kuala Lumpur
The Little Gym of Petaling Jaya,3.1580029,101.60944856,Gyms & Studios,44.67,4.9,Selangor
Kelab Golf Seri Selangor,3.14858754,101.58849983,Golf & Driving Ranges,61.57,4.0,Selangor
Synergy Fitness Puchong,3.02252255,101.62115334,Gyms & Studios,49.57,4.5,Selangor
Kulim Golf & Country Resort,5.40478495,100.5810133,Golf & Driving Ranges,64.29,3.9,Kedah
TCE Tackles Sdn Bhd,5.51636868,100.44482252,Fishing & Hunting,49.29,4.1,Other
Anytime Fitness Nexis,3.15005824,101.59266942,Gyms & Studios,34.57,3.7,Selangor
Kota Seriemas Golf & Country Club,2.7778767,101.76290923,Golf & Driving Ranges,48.71,4.4,Negeri Sembilan
TCE Tackles Bukit Indah,1.46844584,103.65136625,Fishing & Hunting,66.71,3.8,Johor
FLYPROJECT - DC Mall,3.14620756,101.65943082,Gyms & Studios,50.0,4.4,Kuala Lumpur
Fitworx Fitness Centre @ Bukit Jelutong,3.11585163,101.52637696,Gyms & Studios,39.86,4.5,Selangor
Kambiz Warriors Gym,3.15853958,101.74906355,Martial Arts & Dojos,61.43,4.9,Selangor
Angelus Fitness Stapok,1.52372018,110.31081383,Gyms & Studios,51.71,3.9,Sarawak
Ultimate Gym - serious fitness,3.19770574,101.74269566,Gyms & Studios,51.17,4.9,Kuala Lumpur
Borneo Hardcore Gym,6.04297895,116.14501987,Gyms & Studios,54.71,4.2,Sabah
Xin Cheng Enterprise,1.58829439,110.41234195,Fishing & Hunting,54.57,4.6,Sarawak
MST Golf Super Store Subang Jaya,3.06825038,101.59432089,Golf & Driving Ranges,60.0,4.1,Selangor
Enrich Fitness,3.03398159,101.77419864,Gyms & Studios,52.14,4.0,Selangor
Team Powerhouse Fitness,5.45043065,100.30342985,Gyms & Studios,54.43,4.4,Penang
The Little Gym of Subang Jaya,3.08238128,101.58298161,Gyms & Studios,38.8,4.7,Selangor
Bodywork Fitness Centre,4.57651252,101.08260818,Gyms & Studios,33.14,4.4,Perak
Fitwhey Gym Malim,2.24151248,102.23763113,Gyms & Studios,30.0,4.3,Melaka
I-Gym Fitness,3.17332136,113.03662785,Gyms & Studios,56.43,4.3,Sarawak
Nine Three Three Fishing Tackle Shop,2.04790216,102.64535973,Fishing & Hunting,65.14,3.9,Johor
Fishingline Tackle,1.49784661,103.81130246,Fishing & Hunting,65.43,4.4,Johor
Camp5 Climbing Gym Paradigm,1.51554125,103.68392813,Gyms & Studios,55.0,4.7,Johor
Skatepark Bukit Kiara - Jabatan Belia & Sukan WP Kuala Lumpur,3.14044746,101.64331263,Skating & Rinks,52.86,4.3,Kuala Lumpur
Sinamax Badminton Court,3.24014469,101.69781518,Other Outdoor & Lawn Sports,26.29,3.9,Selangor
Sport Line Pro Fishing Shop,3.03068949,101.52759838,Fishing & Hunting,64.33,4.3,Selangor
Vitesse Swim School (Seremban Swimming Lesson),2.7018198,101.91656316,Water & Aquatic Sports,36.29,4.5,Negeri Sembilan
Permata Gym Resources,2.97981047,101.49703867,Gyms & Studios,37.43,4.4,Selangor
52 Forest Sauna & Massage,3.17549649,101.69366933,Saunas & Spas,58.83,3.8,Kuala Lumpur
Kolam Air Panas La ( La Hot Springs),5.5174713,102.53159249,Recreation Centers,30.71,4.2,Terengganu
Celebrity Fitness Gym - Main Place,3.02655433,101.57871638,Gyms & Studios,54.14,4.0,Selangor
Puchong Sport Center,2.99525243,101.61350094,Other Outdoor & Lawn Sports,27.71,4.3,Selangor
The Underdogs Strength & Conditioning,5.3941668,100.32158437,Gyms & Studios,42.5,4.7,Other
Fitness First Gym - IOI Mall Puchong,3.04414837,101.61541847,Gyms & Studios,45.43,3.8,Selangor
The Malacca Club,2.18430461,102.25520336,Recreation Centers,47.29,4.2,Melaka
Bukit Jalil Golf & Country Resort,3.05275017,101.67692071,Golf & Driving Ranges,52.14,3.9,Kuala Lumpur
Moon Fishing Tackle,3.31436534,101.40918433,Fishing & Hunting,48.33,4.7,Selangor
JuaraGym,5.97575218,116.07019917,Gyms & Studios,39.43,4.4,Sabah
TCE Tackles Sdn Bhd,6.12051282,102.20489472,Fishing & Hunting,76.57,4.2,Kelantan
iGP Fitness Centre,1.51479946,103.6298915,Gyms & Studios,24.57,4.2,Johor
FastTrack Gym & Fitness Centre,3.19494231,101.72445264,Gyms & Studios,49.86,4.3,Kuala Lumpur
South Kedah Chinese Recreation Club,5.37288063,100.55922593,Recreation Centers,28.14,3.8,Kedah
Rumah Rakit Pak Itam,2.61120486,101.7025907,Fishing & Hunting,21.71,3.9,Selangor
TCE Tackles Sdn Bhd,2.68950669,101.98076516,Fishing & Hunting,65.71,4.0,Negeri Sembilan
Camp5 Climbing Gym KL Eco City,3.11996569,101.67185936,Gyms & Studios,60.0,4.7,Kuala Lumpur
COLOSSEUM GYM,1.47560757,103.75982739,Gyms & Studios,46.57,4.6,Johor
X Park Sunway South Quay,3.06001348,101.60128191,Recreation Centers,28.0,4.1,Selangor
Fitness Arena,4.68616416,101.11813179,Gyms & Studios,42.83,4.4,Perak
Sunsuria-Pioneer Badminton Hall,3.15549724,101.58763756,Other Outdoor & Lawn Sports,41.86,4.0,Selangor
Nilai Springs Golf & Country Club,2.8389051,101.76400047,Golf & Driving Ranges,73.86,4.0,Negeri Sembilan
Level Up Fitness Xpress Town Square,3.19310992,113.04835361,Gyms & Studios,61.17,4.4,Sarawak
Duta Squash Court,3.16937263,101.66994013,Other Outdoor & Lawn Sports,32.71,4.4,Kuala Lumpur
"Gympark Fitness, Bandar Puteri",2.98557994,101.46359711,Gyms & Studios,38.0,4.8,Selangor
Blue Ice Skating Rink @ Paradigm Mall Johor Bahru,1.5157739,103.68287248,Skating & Rinks,52.0,4.4,Johor
Kompleks Sukan Kota Belud,6.37153649,116.47106189,Recreation Centers,29.57,3.9,Sabah
6 PAX FITNESS CENTRE JB,1.49190054,103.65720474,Gyms & Studios,29.71,4.9,Johor
CHK Arena 赞化阁运动中心,5.36942377,100.46132739,Recreation Centers,46.71,4.7,Other
TCE Tackles Sdn Bhd,5.34681721,103.09057411,Fishing & Hunting,52.0,5.0,Terengganu
Flash Fitness Gym & Sports Centre,2.21353765,102.23773883,Gyms & Studios,48.43,4.9,Melaka
Billion Onsen & Aesthetics - Luxury Spa Kuala Lumpur,3.1628229,101.71241663,Saunas & Spas,26.29,4.7,Kuala Lumpur
"Rahman saudagar umpan Udang, Sotong, & Belanak Hidup",2.58424345,101.78644948,Fishing & Hunting,41.57,4.7,Negeri Sembilan
TCE Tackles Sdn Bhd,5.4361392,100.54954931,Fishing & Hunting,44.86,3.7,Kedah
Anytime Fitness Boulevard Kajang,2.98749757,101.78869036,Gyms & Studios,46.86,4.8,Selangor
24-Hour Gym: Anytime Fitness Bandar Puteri Puchong @ IOI Rio,3.02070563,101.62079143,Gyms & Studios,24.14,4.8,Selangor
F1 FITNESS KUANTAN,3.83833154,103.32660619,Gyms & Studios,55.0,4.8,Pahang
Gym Box - #1 Biggest Gym at Setapak,3.19735824,101.72140545,Gyms & Studios,39.14,4.9,Kuala Lumpur
Utama Farm Prawning,3.14405119,101.61398761,Fishing & Hunting,42.71,4.3,Selangor
Anytime Fitness Sri Damansara,3.19818154,101.60729426,Gyms & Studios,29.43,4.8,Kuala Lumpur
Anytime Fitness Mount Austin,1.54610135,103.76372769,Gyms & Studios,35.29,4.5,Johor
IOI Sports Centre,2.96983785,101.7147097,Recreation Centers,46.71,3.9,Putrajaya
Seriemas SportsPlex,2.77552775,101.76299291,Recreation Centers,28.71,4.5,Negeri Sembilan
Real Fitness,3.04118746,101.61521712,Gyms & Studios,61.43,4.8,Selangor
Blitz Gym,3.07407225,101.58546714,Gyms & Studios,41.71,4.5,Selangor
Icescape,2.9702989,101.7123289,Skating & Rinks,51.71,4.3,Putrajaya
Rumah Rakit Maraie Kg Padang Rumbia,3.53044846,103.19775934,Fishing & Hunting,50.71,4.5,Pahang
Kelab Golf Negara Subang,3.08780397,101.5923792,Golf & Driving Ranges,69.71,4.2,Selangor
Suria Strong Fit Gym,1.48254752,103.68356477,Gyms & Studios,41.0,4.7,Johor
Bubble Sports Complex Tebrau,1.55171532,103.7917391,Recreation Centers,36.57,4.7,Johor
GoFit - Plaza Mont Kiara,3.16600697,101.64940861,Gyms & Studios,43.57,4.4,Kuala Lumpur
Fitness First Gym – 1 Mont Kiara,3.16570718,101.65057534,Gyms & Studios,35.0,3.2,Kuala Lumpur
Good Juju Barbell Club,3.14606245,101.65929881,Gyms & Studios,39.33,4.9,Kuala Lumpur
The One Fitness,3.21372161,101.62895569,Gyms & Studios,60.29,5.0,Kuala Lumpur
Pickle Social Club,3.14095648,101.64141968,Other Outdoor & Lawn Sports,41.86,4.6,Kuala Lumpur
BHub Bouldering,3.10036789,101.6293642,Gyms & Studios,65.14,4.5,Selangor
BUMP Bouldering Pavilion Bukit Jalil,3.04986414,101.66953929,Gyms & Studios,62.57,4.3,Kuala Lumpur
Anytime Fitness Ara Damansara (Dana13),3.1111866,101.57995681,Gyms & Studios,33.0,2.3,Selangor
Anytime Fitness Megah Rise,3.11436358,101.60912132,Gyms & Studios,29.71,3.8,Selangor
Lepak Gym,3.04214617,101.42316124,Gyms & Studios,62.29,5.0,Selangor
Fitnacle Kota Kemuning,2.99377312,101.52771212,Gyms & Studios,55.14,4.9,Selangor
Kampung Gym (Austin),1.54288282,103.76981787,Gyms & Studios,50.29,4.9,Johor
The Flow Studio - Yoga & Pilates | Bangsar,3.12751843,101.67186132,Gyms & Studios,57.71,4.7,Kuala Lumpur
Level Up Fitness Xpress Metrocity (24-Hour Gym),1.56709133,110.30137521,Gyms & Studios,26.43,4.8,Sarawak
GoTeam Sports Complex,3.08073979,101.45154244,Recreation Centers,19.86,4.2,Selangor
Believe Fitness Jaya Shopping Center,3.10912131,101.63467029,Gyms & Studios,23.29,5.0,Selangor
Anytime Fitness Bukit Bintang,3.14802718,101.71559166,Gyms & Studios,41.43,4.6,Kuala Lumpur
Anytime Fitness Jalan Ampang,3.16007734,101.73432128,Gyms & Studios,33.29,4.5,Kuala Lumpur
PUMP FITNESS KL,3.12120418,101.73596772,Gyms & Studios,50.86,4.9,Kuala Lumpur
Maxout Fitness PRO SERIES ( Bukit Mertajam ),5.36500154,100.44393127,Gyms & Studios,52.71,4.8,Other
TNT Fitness Pro,3.05801026,101.58997039,Gyms & Studios,36.57,4.9,Selangor
PUMP FITNESS SUBANG,3.07091778,101.59470891,Gyms & Studios,62.71,5.0,Selangor
"Republic Fitness KK, Centre Point Sabah",5.97862021,116.06972724,Gyms & Studios,66.29,4.9,Sabah
"24-Hour Gym: Anytime Fitness 16 Sierra Puchong, Sierra Fresco.",2.97479637,101.65240752,Gyms & Studios,40.43,4.7,Selangor
Jal Yoga Malaysia (Megah Rise Studio),3.11436336,101.60912133,Gyms & Studios,33.29,4.6,Selangor
The Club Driving Range,3.15024496,101.59963724,Golf & Driving Ranges,47.57,4.1,Selangor
R3 Fitness,1.49629418,103.77524151,Gyms & Studios,42.86,4.3,Johor
TCE Tackles Sdn Bhd,5.34532025,100.22712512,Fishing & Hunting,55.43,4.3,Other
Sion Lee Trading Company,2.27989724,111.83463327,Fishing & Hunting,64.0,4.5,Sarawak
Champion Badminton Court,3.12641758,101.60704067,Other Outdoor & Lawn Sports,53.43,4.0,Selangor
Rainbow Runner Asia Sdn. Bhd,3.20508229,101.75464596,Water & Aquatic Sports,49.4,4.3,Selangor
Shark Fin Swim Academy,2.99234917,101.61869688,Recreation Centers,26.5,4.6,Selangor
Jumpa D'Gym,2.93854713,101.70636237,Gyms & Studios,35.29,5.0,Putrajaya
M SPORTS ARENA,3.20335832,101.64925522,Other Outdoor & Lawn Sports,37.86,4.6,Kuala Lumpur
"LaVista Arena, Bangi Resort Hotel",2.95504687,101.76388339,Team Sports & Fields,14.86,4.4,Selangor
Tops Arena Empire,3.05389754,101.73519044,Team Sports & Fields,53.43,4.5,Kuala Lumpur
Alpha Badminton Complex Bukit Serdang,3.0238933,101.68969335,Team Sports & Fields,33.29,4.3,Selangor
Setapak Badminton Centre,3.1978988,101.7216164,Team Sports & Fields,34.57,4.3,Kuala Lumpur
Optima Utama Sport Center,2.99286691,101.63833213,Other Outdoor & Lawn Sports,19.14,3.9,Selangor
CPS Serdang Badminton Centre,3.01350232,101.69273811,Team Sports & Fields,36.0,4.3,Selangor
Pusat Badminton 148,3.85339456,103.32067011,Other Outdoor & Lawn Sports,34.57,4.5,Pahang
One Tiger Arena,2.98334649,101.8148896,Recreation Centers,29.71,4.4,Selangor
Matrik Shuttle Court,3.12987733,101.71291494,Recreation Centers,39.29,4.1,Kuala Lumpur
Dewan Badminton Cikgu Nie,6.15224569,102.20626144,Other Outdoor & Lawn Sports,30.57,4.7,Kelantan
Satellite Sports Tampoi JB,1.52353681,103.74654314,Other Outdoor & Lawn Sports,25.0,4.8,Johor
TCE Tackles Sdn Bhd,2.28296387,102.21281728,Fishing & Hunting,60.0,4.7,Melaka
Kolam Pancing NSS Fishing Village 渔你同乐,2.27939229,102.23429064,Fishing & Hunting,47.43,4.3,Melaka
1stopfishing Bahau,2.80582228,102.40731617,Fishing & Hunting,68.67,4.6,Negeri Sembilan
TCE Tackles Sdn Bhd,5.14627145,100.46806643,Fishing & Hunting,61.71,4.5,Other
Ultralight Anglers Fishing Tackle,4.82218372,100.70323772,Fishing & Hunting,38.71,5.0,Perak
TCE Tackles Sdn Bhd,3.41843127,101.18395865,Fishing & Hunting,51.71,4.4,Selangor
Umpan udang hidup Kg Keluncur,6.11822198,100.29903722,Fishing & Hunting,34.14,5.0,Kedah
TCE Tackles Sdn Bhd,5.99013958,100.47694434,Fishing & Hunting,50.43,4.8,Kedah
TCE Tackles Sdn Bhd,6.09373486,100.3053018,Fishing & Hunting,51.0,4.7,Kedah
TCE Tackles Sdn Bhd,5.87934644,118.04352089,Fishing & Hunting,66.43,4.4,Sabah
Ha Megah Sports Arena (UNITEN),2.96227858,101.7220509,Recreation Centers,28.71,4.4,Selangor
Kolam Pancing Hari Hari Lai ( 天天来钓虾场),3.08614818,101.40935631,Fishing & Hunting,59.43,4.2,Selangor
DFZ THE GYM,1.64219023,103.60063168,Gyms & Studios,23.43,4.4,Johor
Sweat Sweet Fit Ladies GYM & FITNESS CENTRE (Kulai),1.64714048,103.60083111,Gyms & Studios,33.0,4.7,Johor
Hypertrophy Maniac Gym & Fitness,2.94972287,101.81015295,Gyms & Studios,35.0,4.8,Selangor
Musclehub,2.92462774,101.65238279,Gyms & Studios,38.17,4.7,Selangor
Gym First @ XPark Tambun,4.61956887,101.14573965,Gyms & Studios,43.57,4.6,Perak
Core Fit Gym & Fitness Juru,5.31154677,100.43890967,Gyms & Studios,34.71,4.1,Other
Kyro Fitness Bundusan,5.93291876,116.09614196,Gyms & Studios,41.14,4.8,Sabah
Aisyadelia Cottage Sandakan,5.89979581,117.93616568,Recreation Centers,42.86,4.1,Sabah
Anytime Fitness Setia Alam - The Forum,3.1053961,101.46486158,Gyms & Studios,28.14,3.9,Selangor
Bijak bersatu,1.73038237,103.89170756,Recreation Centers,30.86,4.0,Johor
KTC7 Mini Football Gong Badak,5.38602623,103.07776118,Team Sports & Fields,34.86,4.9,Terengganu
Third Space Pilates - Pulau Tikus,5.43233833,100.30659931,Gyms & Studios,42.0,4.9,Other
Line Pilates & Academy,3.16570735,101.65057533,Gyms & Studios,56.43,4.9,Kuala Lumpur
Kizsports & Gym @ Lotus’s Cheras,3.09910131,101.73196698,Recreation Centers,38.71,4.7,Kuala Lumpur
Kopikids Playcafe,5.38547912,100.54225548,Recreation Centers,44.57,4.8,Kedah
BANGKOK SPA TAMAN SENTOSA,1.49370785,103.7710307,Saunas & Spas,35.0,3.9,Johor
Anson Sport Centre,3.99928629,101.00546841,Other Outdoor & Lawn Sports,52.0,4.3,Perak
Kolam Pancing Udang Puchong 钓虾场 蒲种,3.05885166,101.63799588,Fishing & Hunting,43.86,4.1,Selangor
Gardens Arena,3.28216313,101.53832649,Team Sports & Fields,18.86,4.2,Selangor
Flyproject - (Kapas Heights),3.13682474,101.66191783,Gyms & Studios,54.0,3.9,Kuala Lumpur
MUTANT LAB,3.08476188,101.66823755,Gyms & Studios,33.14,4.8,Kuala Lumpur
Kolam Memancing Udang Harimau Ampangan,2.72616284,101.97038189,Fishing & Hunting,57.0,5.0,Negeri Sembilan
Pusat Memancing & Rekreasi A&A,1.88784582,102.67645082,Fishing & Hunting,56.43,3.7,Johor
Naam Kheung Cheras Badminton Centre,3.11886913,101.72047543,Other Outdoor & Lawn Sports,37.86,4.2,Kuala Lumpur
Fitness First Gym - Avenue K,3.15948195,101.71093448,Gyms & Studios,58.71,4.0,Kuala Lumpur
Kedah Badminton Association,6.15154415,100.36130277,Team Sports & Fields,29.0,4.3,Kedah
TCE Tackles Sdn Bhd,5.34942885,100.46972585,Fishing & Hunting,61.29,4.4,Other
W Fishing Station,3.05294954,101.73546774,Fishing & Hunting,45.0,4.6,Kuala Lumpur
Curves Setia Alam,3.12776575,101.46563549,Gyms & Studios,47.33,5.0,Selangor
Celebrity Fitness Lotus’s Kepong,3.19367876,101.63106545,Gyms & Studios,49.57,3.5,Kuala Lumpur
Manjung Indoor Sports Arena,4.20202335,100.67603695,Recreation Centers,36.57,4.2,Perak
MST Golf Pro Shop Glenmarie GCC,3.0943521,101.57296364,Golf & Driving Ranges,62.86,3.9,Selangor
Hi5 MYY,4.41519545,114.01021481,Recreation Centers,48.57,4.8,Sarawak
Camp5 Climbing Gym,3.09057295,101.55728756,Gyms & Studios,51.71,4.6,Selangor
Sport Complex Grand Kampar,4.32847174,101.14273238,Recreation Centers,43.57,3.8,Perak
Beach Republic,4.33092766,113.96609561,Recreation Centers,40.14,4.0,Sarawak
Echogym Centre,2.88224826,101.7921803,Gyms & Studios,49.86,4.4,Selangor
Kompleks Sukan UNISEL,3.41655593,101.44083169,Gyms & Studios,37.57,4.8,Selangor
Semambu Badminton Centre,3.84025682,103.32931814,Recreation Centers,57.86,4.1,Pahang
Northern Pro Tackle sdn bhd ( sungai petani ),5.67121514,100.50612535,Fishing & Hunting,54.29,3.8,Kedah
UTC Sabah Futsal Court,5.96315459,116.06549665,Ball Sports,35.0,4.2,Sabah
Sports Arena Puchong,3.04159819,101.61797874,Recreation Centers,42.29,4.1,Selangor
Sukan Arena Kuantan,3.78517211,103.28821326,Team Sports & Fields,28.57,4.4,Pahang
VI FITNESS,2.6918528,101.90247416,Gyms & Studios,39.29,4.6,Negeri Sembilan
"Manjung Badminton Club ( Manjung Point, Seri Manjung, Perak )",4.21476951,100.66528973,Team Sports & Fields,41.57,4.1,Perak
Permas Sports Complex,1.50577641,103.82108232,Recreation Centers,43.29,4.0,Johor
TCE Tackles Sdn Bhd,5.73656813,115.93625713,Fishing & Hunting,73.43,4.5,Sabah
Drago Arena Football Field,2.23117616,102.29934823,Team Sports & Fields,21.43,4.1,Melaka
Atlantis Fitness Studio,3.21496295,101.64043918,Gyms & Studios,43.57,5.0,Kuala Lumpur
SJK(C) Sungai Buloh Badminton Centre,3.19501124,101.56711815,Team Sports & Fields,43.57,4.7,Selangor
Epifisherman Boat Charter,3.17421631,101.30830724,Fishing & Hunting,35.71,4.7,Selangor
CPS Rawang Badminton Hall,3.32349763,101.57543071,Team Sports & Fields,33.43,3.0,Selangor
Pickle World,3.0855729,101.62405162,Other Outdoor & Lawn Sports,36.43,4.0,Selangor
Zelka Sports Centre,3.05559767,101.65457787,Gyms & Studios,45.43,3.9,Selangor
Celebrity Fitness Gym - 1 Utama,3.14941425,101.61366337,Gyms & Studios,40.71,3.9,Selangor
KBOUNCE K-Style Spinning Johor (The Superhuman Project Sdn Bhd),1.56144357,103.73264737,Gyms & Studios,41.29,5.0,Johor
24-Hour Gym: Anytime Fitness Quayside Mall Gamuda Kemuning,2.95630154,101.55023779,Gyms & Studios,34.57,4.7,Selangor
Airon Golf Driving Range @ Marina Island Lumut,4.21019973,100.60303796,Golf & Driving Ranges,41.57,5.0,Perak
Kompleks Sukan Bangsar,3.13359174,101.66487027,Recreation Centers,61.14,4.1,Kuala Lumpur
Fitworx Fitness Studio @ Denai Alam,3.16145294,101.50874075,Gyms & Studios,39.14,4.0,Selangor
"Kolam Pancing Udang Harimau Taman Perling, JB.",1.48411693,103.67711119,Fishing & Hunting,42.57,4.3,Johor
Anytime Fitness SqWhere Sungai Buloh,3.19711024,101.57517047,Gyms & Studios,28.86,4.1,Selangor
Gentle Pilates & Prenatal Postnatal Pilates,3.03414682,101.55991921,Gyms & Studios,47.43,5.0,Selangor
PWRHOUSE Fitness Studio @ Hartamas,3.15992251,101.64294961,Gyms & Studios,56.57,4.6,Kuala Lumpur
TRIBE Boxing Studio - Mont Kiara (MK),3.16821867,101.64882856,Gyms & Studios,43.14,4.7,Kuala Lumpur
Futsal Future Sport Centre,5.17037482,100.47828761,Recreation Centers,22.86,4.0,Penang
TCE Tackles Sdn Bhd,5.8089309,100.47628664,Fishing & Hunting,66.86,4.2,Kedah
The Kingdom Fitness,5.33148991,100.4835444,Gyms & Studios,58.0,4.6,Other
Kolam Pancing Seksyen 24,3.03588087,101.51823977,Fishing & Hunting,29.0,4.2,Selangor
FISHING KINGDOM SG BURUNG,3.97799167,100.70295792,Fishing & Hunting,51.83,3.6,Perak
Sports Arena @ UNITEN,2.96936583,101.72546576,Recreation Centers,37.83,4.6,Selangor
Kolam Pancing Fish Garden 2,3.17184859,101.3084023,Fishing & Hunting,35.86,5.0,Selangor
Babel TTDI,3.15242013,101.62037436,Gyms & Studios,43.71,4.6,Kuala Lumpur
TCE Tackles Sdn Bhd,4.63421355,103.43499442,Fishing & Hunting,59.0,4.3,Terengganu
Kidzooona AEON Bukit Mertajam,5.3190661,100.47549769,Recreation Centers,47.71,4.0,Other
Brolab Gym,3.1141637,101.63849731,Gyms & Studios,35.86,5.0,Selangor
Gympark Fitness Pandamaran,3.00651681,101.4157062,Gyms & Studios,39.57,4.6,Selangor
TCE Tackles Sdn Bhd,5.42556823,100.53390694,Fishing & Hunting,56.86,4.1,Kedah
TCE Tackles Sdn Bhd,3.48887284,103.39232849,Fishing & Hunting,50.43,4.1,Pahang
7 DAYS FITNESS KULAI BRANCH,1.64240496,103.61133331,Gyms & Studios,34.0,4.0,Johor
LCS Sport Arena,3.48850748,102.32745949,Recreation Centers,27.29,4.4,Pahang
TCE Tackles Sdn Bhd,4.24356571,117.89393351,Fishing & Hunting,70.14,4.3,Sabah
Celebrity Fitness Gym - NU Sentral,3.13339756,101.68533525,Gyms & Studios,46.71,3.7,Kuala Lumpur
RedLine Gym Kuantan Pahang,3.81483351,103.28556067,Gyms & Studios,56.57,4.1,Pahang
JJ Futsal,3.12185783,101.42094268,Ball Sports,51.14,3.8,Selangor
Anytime Fitness KL Gateway,3.11440435,101.66054913,Gyms & Studios,29.14,4.4,Kuala Lumpur
New Vision Badminton Court,3.11279575,101.63464964,Team Sports & Fields,38.57,4.0,Selangor
Celebrity Fitness Gym - Jaya One,3.11710759,101.63272524,Gyms & Studios,34.57,4.0,Selangor
Sentosa Sports Centre,1.4630493,110.33449334,Recreation Centers,40.14,4.0,Sarawak
TCE Tackles Sdn Bhd,1.57497373,110.29401778,Fishing & Hunting,65.86,4.2,Sarawak
TCE Tackles Sdn Bhd,6.13925333,100.36040744,Fishing & Hunting,70.86,4.3,Kedah
TCE Tackles Sdn Bhd,4.75955377,103.41546073,Fishing & Hunting,60.57,4.8,Terengganu
Ace Sports World @ Rooftop Lotus's Kepong,3.19325664,101.6310606,Recreation Centers,62.57,4.4,Kuala Lumpur
TCE Tackles Sdn Bhd,3.15023531,101.43524057,Fishing & Hunting,73.57,4.4,Selangor
TCE Tackles Sdn Bhd,2.94488948,101.84248724,Fishing & Hunting,63.71,3.9,Selangor
"Brother Gym & Fitness, Kangar, Perlis",6.43940627,100.19139028,Gyms & Studios,53.29,4.6,Perlis
Camp5 Climbing Gym,3.14426492,101.70823532,Gyms & Studios,39.14,4.5,Kuala Lumpur
Kompleks Sukan Setiawangsa,3.2000021,101.74826792,Recreation Centers,55.86,4.3,Kuala Lumpur
Ultimate Mma Academy /Kickboxing /Jiujitsu & Muay Thai,1.55235583,103.78218855,Martial Arts & Dojos,29.71,4.9,Johor
Perling Badminton Court,1.48330991,103.68323996,Recreation Centers,42.86,4.3,Johor
Northern Pro Tackle sdn bhd,5.38523872,100.39085881,Fishing & Hunting,53.17,4.2,Other
Ah Kaw Tackle Taman Cendana Shimano Daiwa Abu Garcia Xzoga Daiichi Gtech Hasamu Fixory dealer,1.48727277,103.91224075,Fishing & Hunting,57.43,4.4,Johor
TAEKWONDO RAWANG HYPERMAX ACADEMY,3.31803087,101.53424597,Martial Arts & Dojos,54.8,4.9,Selangor
Penang Indoor Archery X (Level 6),5.40579349,100.33326315,Recreation Centers,69.29,4.0,Penang
Stadium PUSAT SUKAN UTHM,1.85312563,103.08246323,Recreation Centers,48.14,4.4,Johor
HYPE CLUB FITNESS,3.1609094,101.51083356,Gyms & Studios,38.71,4.8,Selangor
Kolam Pancing Udang Galah Kempas,1.52469456,103.72104441,Fishing & Hunting,44.0,4.5,Johor
Anytime Fitness Tasek Central,1.51400328,103.65294467,Gyms & Studios,32.86,4.8,Johor
Gympark Fitness Jenjarom,2.87495884,101.49959032,Gyms & Studios,27.0,4.0,Selangor
A Ling Tackle,3.44493012,102.42192891,Fishing & Hunting,67.33,4.0,Pahang
Dewan Badminton,1.50308281,103.88230383,Other Outdoor & Lawn Sports,57.17,4.0,Johor
Five X Fitness,5.33247456,100.27333749,Gyms & Studios,43.0,4.4,Penang
Pro One Badminton Centre (Pro One),1.49768552,103.65465075,Team Sports & Fields,45.29,4.2,Johor
Dewan An-Nisa Pondok Labu Kulim,5.39113255,100.53608337,Other Outdoor & Lawn Sports,43.43,3.9,Kedah
Manjung Badminton Arena,4.17179069,100.70660583,Other Outdoor & Lawn Sports,53.57,4.3,Perak
Palacio Centre,1.46974585,103.75571058,Saunas & Spas,47.33,3.8,Johor
Dewan Persatuan Badminton Bumiputra Sarawak,1.59724646,110.33295654,Other Outdoor & Lawn Sports,69.43,4.2,Sarawak
TCE Tackles Sdn Bhd,2.80665113,102.4064345,Fishing & Hunting,56.0,4.0,Negeri Sembilan
PJ Palms Sports Centre (old),3.10168751,101.64325275,Recreation Centers,55.14,4.2,Selangor
Daiman Sri Skudai Sports Center,1.54615748,103.65283885,Recreation Centers,29.29,4.2,Johor
Galaxy FIT Fitness,1.51741028,103.62939267,Gyms & Studios,43.71,4.5,Johor
SILVERMANIA FITNESSGROUND,4.21632096,100.69068947,Gyms & Studios,57.67,4.9,Perak
iFITness & Gym,1.49799737,110.36981818,Gyms & Studios,40.71,4.5,Sarawak
SURIA GYM GROUP SDN BHD & LADY'S GYM,1.54429245,103.62779632,Gyms & Studios,38.43,4.6,Johor
Kelab Golf Sarawak,1.5947147,110.34623141,Golf & Driving Ranges,53.43,4.1,Sarawak
Ulu Bendul Fish Valley,2.73558865,102.09569866,Fishing & Hunting,49.67,4.5,Negeri Sembilan
Kelab Rahman Putra Malaysia,3.21929784,101.55068971,Golf & Driving Ranges,64.86,4.1,Selangor
Dynastic Fitness Centre,4.63727595,101.13053712,Gyms & Studios,38.29,3.9,Perak
Pakalangan Bay,4.37167615,118.55180486,Recreation Centers,31.86,4.1,Sabah
Aurora Muslimah Salon & Spa,2.99990016,101.52366914,Saunas & Spas,38.43,4.7,Selangor
13 Aces starhill driving range,1.56694576,103.71733527,Golf & Driving Ranges,54.14,4.2,Johor
Footballhub @ Rimbayu,2.94108667,101.54412697,Team Sports & Fields,22.57,4.2,Selangor
Black Panda Fitness Kepong,3.2138559,101.62982762,Gyms & Studios,42.86,4.9,Kuala Lumpur
Batu Lanchang Basketball Court,5.38494678,100.30485166,Team Sports & Fields,35.43,4.2,Penang
A zone Baskball Court,5.3986705,100.39951627,Other Outdoor & Lawn Sports,60.29,4.0,Other
Muscle House Fitness Center,2.19662657,102.23612584,Gyms & Studios,45.86,4.6,Melaka
DMS GYM,2.91646731,101.86133484,Gyms & Studios,60.14,4.2,Selangor
Fitness First Gym - Cheras Leisure Mall,3.09074981,101.74033839,Gyms & Studios,72.43,4.0,Kuala Lumpur
TCE Tackles Sdn Bhd,5.60663051,100.63771588,Fishing & Hunting,72.0,4.5,Kedah
Amanjaya Sports Arena,5.6722519,100.50803196,Recreation Centers,33.14,4.4,Kedah
Gaya Garden,1.56547844,103.79968453,Recreation Centers,36.29,4.6,Johor
Dewan Badminton Padang Temusu,5.60282354,100.46713847,Other Outdoor & Lawn Sports,19.14,3.9,Kedah
The Royal Selangor Golf Club,3.14535477,101.72350141,Golf & Driving Ranges,65.86,4.4,Kuala Lumpur
HG Kolam Pancing Ban Pecah,5.06374144,100.37541543,Fishing & Hunting,53.5,3.8,Perak
Ashtanga Yoga Therapy Centre Seremban,2.71316967,101.90995695,Gyms & Studios,33.43,5.0,Negeri Sembilan
Starhill Golf & Country Club,1.5648613,103.7190161,Golf & Driving Ranges,82.0,3.9,Johor
Ranau Rabbit Farm,5.91924418,116.67326457,Recreation Centers,44.57,3.9,Sabah
WOW Fitness TTDI,3.15379093,101.61998922,Gyms & Studios,36.29,4.7,Kuala Lumpur
Kedai Pancing Orchid Tackle,3.04974021,101.44408022,Fishing & Hunting,70.14,3.9,Selangor
Pro One Badminton Court Cheras,3.0631763,101.75504236,Other Outdoor & Lawn Sports,19.14,4.2,Selangor
Peralatan Memancing Ikan Qiao Yen,3.31996145,101.57269422,Fishing & Hunting,63.29,4.5,Selangor
Bolder Ventures Climbing Gym,3.04505495,101.60230961,Gyms & Studios,61.71,4.6,Selangor
World Fitness Gym,5.39362958,100.27404141,Gyms & Studios,49.29,4.3,Penang
Sport Heroes,3.16150478,101.56687642,Other Outdoor & Lawn Sports,37.14,4.1,Selangor
Blue Ice Skating Rink @ Sunway 163 Mall,3.16643278,101.6492393,Skating & Rinks,59.57,3.5,Kuala Lumpur
BB Sport Arena,5.29582185,100.27795226,Ball Sports,52.43,4.5,Other
Fitness First Gym - The Gardens Mall,3.11838516,101.67345666,Gyms & Studios,41.86,3.9,Kuala Lumpur
King Fisher Tackle (kk),6.00180037,116.12481864,Fishing & Hunting,73.29,4.6,Sabah
Iron Man Gym & Fitness,3.00365528,101.39636556,Gyms & Studios,34.43,4.9,Selangor
222 Sports Centre PJ,3.09543952,101.62840195,Recreation Centers,48.86,4.4,Selangor
TRIBE Boxing Studio - Tropicana (TG),3.14890233,101.59233219,Gyms & Studios,50.29,4.6,Selangor
TSI Sports Arena Cyberjaya,2.92696046,101.65826758,Recreation Centers,48.86,4.2,Selangor
The Gym Box,1.52810551,110.33815682,Gyms & Studios,60.17,4.6,Sarawak
Kota Permai Golf & Country Club,2.99604127,101.53297528,Golf & Driving Ranges,76.33,4.3,Selangor
Pusat Refleksologi Tradisional Shu Xin - Mahkota Cheras Branch,3.05134438,101.78132057,Saunas & Spas,56.0,4.2,Selangor
Kolam D'Semarak Air Masin,3.46582837,101.66791511,Fishing & Hunting,48.71,4.0,Selangor
Juara Badminton Arena,5.87229732,116.05481878,Team Sports & Fields,44.43,4.3,Sabah
Dewan Badminton Bandar Lahat Baru,4.53941533,101.03855151,Other Outdoor & Lawn Sports,43.71,4.2,Perak
West Point Gym,2.87891071,101.66321476,Gyms & Studios,43.17,4.0,Selangor
Combine Training,3.82042631,103.32684672,Gyms & Studios,55.17,5.0,Pahang
D' Futsal Center,6.47576745,100.21094095,Ball Sports,26.43,4.4,Perlis
Celebrity Fitness Gym - Dpulze,2.9222052,101.64838022,Gyms & Studios,38.29,3.4,Selangor
BUMP Bouldering Jaya One,3.11746854,101.63252531,Gyms & Studios,52.57,4.6,Selangor
Sport Centre 88,3.24078241,101.44642832,Recreation Centers,33.14,4.0,Selangor
seven star gym block 86,5.33834061,100.27583688,Gyms & Studios,58.29,5.0,Other
HAVONA BADMINTON SPORTS CENTRE,2.02614962,103.29540498,Other Outdoor & Lawn Sports,43.43,4.7,Johor
Legend Futsal Indera Mahkota,3.81367271,103.2840644,Ball Sports,29.29,4.2,Pahang
Bayuemas Cricket Oval,2.97803883,101.43507361,Ball Sports,16.71,4.5,Selangor
Anytime Fitness Setiawangsa,3.17754045,101.74808584,Gyms & Studios,34.43,4.0,Kuala Lumpur
AY Beauty And Spa (Female),5.37236662,100.46154628,Saunas & Spas,71.71,4.9,Other
Mount Kinabalu Golf Club,6.03099544,116.59596115,Golf & Driving Ranges,47.43,4.3,Sabah
Taiping Fishing Tackle,4.87610381,100.72491493,Fishing & Hunting,52.17,4.6,Perak
Kolam Pancing Air Masin Abah23 Paradise Sungai Nibong,3.59878813,101.05547212,Fishing & Hunting,39.67,4.4,Selangor
Langkawi Gym and Fitness,6.32843611,99.82011797,Gyms & Studios,62.71,4.6,Kedah
HIITREBEL TRAINING CLUB,3.16700191,101.6497057,Gyms & Studios,32.14,4.3,Kuala Lumpur
J.C Pro Fitness GYM (Kuchai Lama),3.09143681,101.68657319,Gyms & Studios,34.86,4.6,Kuala Lumpur
Bangi Fishing Tackle,2.90065384,101.77928877,Fishing & Hunting,19.17,4.4,Selangor
Pertama Fishing Shop (Telok Panglima Garang),2.91204314,101.46994678,Fishing & Hunting,65.5,4.2,Selangor
Beats Studio Kuching,1.52270634,110.34099134,Gyms & Studios,30.14,5.0,Sarawak
